Latitude,Longitude,Time,Date,Number of Sats,GPS Speed (Kn),GPS True Heading,GPS Magnetic Variation,HDOP,C Magnetic Heading,C True Heading,Pitch Angle,Roll Angle,C Inside Temp (c),DFS Depth (m),DTB Height (m),Total Water Column (m),Batt Percent,Power Watts,Watt-Hours,Batt Volts,Batt Ampers,Batt State,Time to Empty,Current Step,Dist To Next (m),Next Speed (kn),Vehicle Speed (kn),Motor Speed CMD,Next Heading,Next Long,Next Lat,Next Depth (m),Depth Goal (m),Vehicle State,Error State,Distance to Track (m),Fin Pitch R,Fin Pitch L,Pitch Goal,Fin Yaw T,Fin Yaw B,Yaw Goal,Fin Roll,DVL-Depth (m),DVL -Altitude (m),DVL -Water Column (m),DVL-FixType,DVL-FixQuality,DVL-Temperature,Conductivity (mmhos/cm),Temperature (c),Salinity (ppt),Sound Speed (m/s),Date m/d/y   ,Time hh:mm:ss,Temp C,SpCond mS/cm,Sal ppt,Depth feet,pH,pH mV,Turbid+ NTU,Chl ug/L,BGA-PC cells/mL,ODOsat %,ODO mg/L,Battery volts,ROSEM Command Type
25.84593733,-80.17631233,03:31.1,10/4/20,6,0.211,0,-6.99304415,2.06,295,289.05,4.06,-5.1,29.5,0.03,1.13,1.16,91,22,498.6,16.1,-1.3,D,1516.7,0,18.793,2,0,128,247.09,-80.17648531,25.84587153,0,0,1,N,14.03359,83,83,11,5,5,239.162,0,9999.99,1.17,1.297,2,9,28.7,0,28.70000076,2.75,1508.94094,10/4/20,17:43:37,27.95,5.138,2.75,0.985,7.86,-51.3,-2.3,-3.3,-381,28.3,2.18,13.2,
25.84593798,-80.17631143,03:32.1,10/4/20,6,0.289,0,-6.99304415,2.06,295.8,289.86,4.21,-3.87,29.5,0.03,1.11,1.14,91,23,498.6,16.1,-1.4,D,1427,0,18.904,2,0.26,174,246.99,-80.17648531,25.84587153,0,0,1,N,14.20346,82,82,11,5,5,247.0862,0,9999.99,1.15,1.277,2,9,28.7,0,28.70000076,2.75,1508.94039,10/4/20,17:43:38,27.95,5.135,2.75,0.984,7.83,-49.2,-1.2,-1.4,-805,28.3,2.18,13.2,
25.84593876,-80.17631052,03:33.2,10/4/20,6,0.364,0,-6.99304415,2.06,300.7,294.83,5.93,1.21,29.5,0.03,1.12,1.15,91,23,498.6,16.1,-1.4,D,1427,0,19.022,2,0.26,174,246.86,-80.17648531,25.84587153,0,0,1,N,14.20346,93,93,11,5,5,247.2606,0,9999.99,1.17,1.297,2,9,28.7,0,28.70000076,2.74,1508.9306,10/4/20,17:43:39,27.95,5.129,2.74,0.928,7.82,-48.8,-2,-1.6,144,28.2,2.18,13.3,
25.84593931,-80.17631166,03:34.2,10/4/20,6,0.457,0,-6.99304415,2.06,296.1,290.17,3.32,-1.15,29.6,0.02,1.13,1.15,91,23,498.6,16.1,-1.4,D,1427,0,18.942,2,0.04,174,246.55,-80.17648531,25.84587153,0,0,1,N,14.20346,77,77,11,5,5,247.1226,0,9999.99,1.16,1.287,2,9,28.7,0,28.70000076,2.74,1508.9299,10/4/20,17:43:40,27.95,5.129,2.74,0.914,7.86,-51.1,-2.3,-3.5,-6422,28.2,2.18,13.3,
25.84594051,-80.17631598,03:35.2,10/4/20,6,0.96,0,-6.99304415,2.06,290.9,284.88,3.19,0.08,29.6,0.01,1.13,1.14,91,23,498.6,16.1,-1.4,D,1427,0,18.6,2,0.26,174,245.65,-80.17648531,25.84587153,0,0,1,N,14.20346,76,76,11,5,5,246.6128,0,9999.99,1.16,1.287,2,9,28.7,0,28.70000076,2.74,1508.92943,10/4/20,17:43:41,27.95,5.13,2.74,1.049,7.84,-49.8,-1.5,-1.5,-3129,28.2,2.18,13.3,
25.84594265,-80.17632104,03:36.2,10/4/20,6,1.163,0,-6.99304415,2.06,282.7,276.51,3.11,-1.82,29.6,0.01,1.17,1.18,91,39,498.6,16.1,-2.4,D,842.2,0,18.242,2,0.58,174,244.31,-80.17648531,25.84587153,0,0,1,N,14.20346,76,76,11,5,5,244.3584,0,9999.99,1.2,1.327,2,9,28.7,0,28.70000076,2.77,1508.95837,10/4/20,17:43:42,27.95,5.169,2.77,0.974,7.86,-51.1,-1,-1.7,-3896,28.2,2.17,13.1,
25.84594334,-80.17632679,03:37.2,10/4/20,6,0.874,0,-6.99304415,2.06,274.4,268,3.86,0.24,29.6,0.01,1.16,1.17,91,39,498.6,16.1,-2.4,D,842.2,0,17.76,2,0.76,174,243.28,-80.17648531,25.84587153,0,0,1,N,14.20346,80,80,11,28,28,243.3228,0,9999.99,1.19,1.317,2,9,28.7,0,28.70000076,2.76,1508.94796,10/4/20,17:43:43,27.95,5.161,2.76,0.99,7.82,-48.8,-1.8,-6.7,-3546,28.2,2.18,13.3,
25.84594233,-80.176332,03:38.2,10/4/20,6,1.254,0,-6.99304415,2.06,262.6,255.79,4.72,2.17,29.6,0.01,1.25,1.26,91,39,498.6,16.1,-2.4,D,842.2,0,17.244,2,0.95,174,242.84,-80.17648531,25.84587153,0,0,1,N,14.20346,85,85,11,70,70,243.0895,0,9999.99,1.29,1.417,2,9,28.7,0,28.70000076,2.78,1508.96892,10/4/20,17:43:44,27.95,5.198,2.78,0.978,7.83,-49.5,-1.8,-5.8,-1319,28.2,2.17,13.2,
25.84593975,-80.17633759,03:39.2,10/4/20,6,1.29,0,-6.99304415,2.06,258.7,251.73,5.53,-0.05,29.6,0.01,1.31,1.33,91,38,498.6,16.1,-2.3,D,878.9,0,16.615,2,1.06,174,242.84,-80.17648531,25.84587153,0,0,1,N,14.20346,88,88,11,91,91,242.8216,0,9999.99,1.36,1.487,2,9,28.7,0,28.70000076,2.8,1508.99065,10/4/20,17:43:45,27.95,5.232,2.8,0.977,7.82,-49,-2.4,-4.4,948,28.1,2.17,13.3,
25.84593672,-80.1763432,03:40.3,10/4/20,6,1.347,0,-6.99304415,2.06,252.6,245.36,3.78,2.99,29.6,0.01,1.45,1.47,91,38,498.6,16.1,-2.3,D,878.9,0,15.962,2,1.15,174,242.99,-80.17648531,25.84587153,0,0,1,N,14.20346,80,80,11,117,117,242.9509,0,9999.99,1.49,1.617,2,9,28.7,0,28.70000076,2.79,1508.98013,10/4/20,17:43:46,27.95,5.215,2.79,0.994,7.86,-50.9,-0.7,-4.6,-905,28.1,2.17,13.1,
25.84593338,-80.17634891,03:41.3,10/4/20,6,1.345,0,-6.99304415,2.06,251.8,244.53,4.08,3.33,29.7,0,1.69,1.7,91,38,498.6,16.1,-2.3,D,878.9,0,15.285,2,1.27,174,243.26,-80.17648531,25.84587153,0,0,1,N,14.20346,81,81,11,122,122,243.1941,0,9999.99,1.73,1.857,2,9,28.7,0,28.70000076,2.84,1509.03088,10/4/20,17:43:47,27.95,5.294,2.84,0.985,7.85,-50.4,-1.5,-3.7,-1623,28.1,2.17,13.4,
25.84592672,-80.17635748,03:42.2,10/4/20,6,1.794,295.57,-6.99304415,2.06,247.2,239.71,3.16,5.53,29.7,0,1.91,1.91,91,38,498.6,16.1,-2.3,D,878.9,0,14.188,2,1.38,174,244.37,-80.17648531,25.84587153,0,0,1,N,14.20346,76,76,11,144,144,244.2793,0,9999.99,1.94,2.067,2,9,28.7,0,28.70000076,2.86,1509.05153,10/4/20,17:43:48,27.96,5.332,2.86,0.969,7.81,-48.3,0,-3.9,537,28.1,2.17,13.3,
25.84591891,-80.1763662,03:43.3,10/4/20,6,1.48,263.12,-6.99304415,2.06,251.6,244.32,3.64,0.43,29.7,0,2.02,2.02,91,37,498.6,16.1,-2.3,D,888.6,0,13.033,2,1.42,175,246.16,-80.17648531,25.84587153,0,0,1,N,0.2940782,79,79,11,137,137,246.8549,0,9999.99,2.05,2.177,2,9,28.7,0,28.70000076,2.86,1509.05112,10/4/20,17:43:49,27.96,5.33,2.86,1.001,7.82,-49.1,-1.2,-1.5,-2156,28.1,2.17,13.5,
25.84591249,-80.1763733,03:44.3,10/4/20,6,1.63,263.12,-6.99304415,2.06,248.8,241.38,2.77,5,29.7,0,2.18,2.18,91,37,498.6,16.1,-2.3,D,888.6,0,12.099,2,1.53,176,247.88,-80.17648531,25.84587153,0,0,1,N,0.6335933,74,74,11,159,159,249.2779,0,9999.99,2.2,2.327,2,9,28.7,0,28.70000076,2.87,1509.06157,10/4/20,17:43:50,27.96,5.349,2.87,0.955,7.82,-48.5,-1.5,2,-828,28.1,2.17,13.2,
25.84590728,-80.17637861,03:45.3,10/4/20,6,1.405,263.12,-6.99304415,2.06,255.8,248.71,4.2,0.99,29.7,0,2.34,2.34,91,37,498.6,16.1,-2.3,D,888.6,0,11.393,2,1.56,176,249.58,-80.17648531,25.84587153,0,0,1,N,0.9465517,82,82,11,138,138,251.4981,0,9999.99,2.38,2.507,2,9,28.7,0,28.70000076,2.86,1509.05114,10/4/20,17:43:51,27.96,5.343,2.86,1.018,7.87,-51.9,-3.1,-5.3,-1375,28,2.16,13.3,
25.84590473,-80.17638659,03:46.3,10/4/20,6,1.822,247.61,-6.99304415,2.06,254.1,246.93,3.63,3.37,29.7,0,2.39,2.39,91,37,498.6,16.1,-2.3,D,888.6,0,10.546,2,1.57,176,249.51,-80.17648531,25.84587153,0,0,1,N,0.8580713,77,77,11,141,141,250.8717,0,9999.99,2.42,2.547,2,9,28.7,0,28.70000076,2.86,1509.05179,10/4/20,17:43:52,27.96,5.33,2.86,0.969,7.86,-51.2,-1.6,-5,-1132,28,2.16,13.2,
25.84589671,-80.17639546,03:47.4,10/4/20,6,1.796,236.59,-6.99304415,2.06,258.7,251.73,4.41,2.35,29.7,0.01,2.39,2.4,91,40,498.5,16.1,-2.4,D,833.9,0,9.418,2,1.63,177,252.7,-80.17648531,25.84587153,0,0,1,N,1.293676,83,83,11,136,136,253.9359,0,9999.99,2.42,2.547,2,9,28.7,0,28.70000076,2.87,1509.06232,10/4/20,17:43:53,27.96,5.354,2.87,0.973,7.85,-50.3,0.7,-1.9,-2007,28,2.16,13.3,
25.84589299,-80.17640051,03:48.4,10/4/20,6,1.636,236.59,-6.99304415,2.06,260,253.09,2.74,3.09,29.7,0,2.67,2.67,91,41,498.5,16.1,-2.5,D,815.5,0,8.816,2,1.58,177,254.3,-80.17648531,25.84587153,0,0,1,N,1.451,73,73,11,135,135,255.0299,0,9999.99,2.7,2.827,2,9,28.7,0,28.70000076,2.68,1508.8642,10/4/20,17:43:54,27.96,5.019,2.68,0.998,7.86,-51.3,-2.4,-1.2,-2263,28,2.16,13.1,
25.84588925,-80.1764086,03:49.4,10/4/20,6,1.756,236.59,-6.99304415,2.06,256.5,249.44,4.5,8.6,29.8,0,2.75,2.75,91,41,498.5,16.1,-2.5,D,815.5,0,7.926,2,1.66,178,255.61,-80.17648531,25.84587153,0,0,1,N,1.480762,84,84,11,150,150,255.236,0,9999.99,2.79,2.917,2,9,28.7,0,28.70000076,2.66,1508.84258,10/4/20,17:43:56,27.94,4.977,2.66,1.001,7.83,-49.6,-1.5,-7.5,-3913,27.9,2.15,13.4,
25.84588121,-80.17641842,03:50.5,10/4/20,6,1.665,226.95,-6.99304415,2.06,265.5,258.8,2.89,-0.56,29.7,0,2.75,2.75,91,41,498.5,16.1,-2.5,D,815.5,0,6.78,2,1.62,178,260.86,-80.17648531,25.84587153,0,0,1,N,1.884828,74,74,11,124,124,258.0063,0,9999.99,2.79,2.917,2,9,28.7,0,28.70000076,2.66,1508.84258,10/4/20,17:43:56,27.94,4.977,2.66,1.001,7.83,-49.6,-1.5,-7.5,-3913,27.9,2.15,13.4,
25.84587613,-80.17642746,03:51.5,10/4/20,6,2.225,226.95,-6.99304415,2.06,260.6,253.71,2.77,3.94,29.7,0,2.75,2.75,91,41,498.5,16.1,-2.5,D,815.5,0,5.812,2,1.68,179,264.95,-80.17648531,25.84587153,0,0,1,N,1.998788,74,74,11,147,147,258.7779,0,9999.99,2.79,2.917,2,9,28.7,0,28.70000076,2.68,1508.86331,10/4/20,17:43:57,27.94,5.026,2.68,0.99,7.82,-49,-1.5,-0.3,-1490,27.9,2.16,13.2,
25.84587102,-80.17643736,03:52.5,10/4/20,6,2.333,235.77,-6.99304415,2.06,266.7,260.05,3.61,2.62,29.7,0,2.98,2.98,91,42,498.5,16.1,-2.6,D,795.8,1,7.907,2,1.75,179,140.63,-80.17638724,25.84581606,0,0,1,N,2.586334,79,79,11,5,5,140.0624,0,9999.99,3.01,3.137,2,9,28.7,0,28.70000076,2.56,1508.73805,10/4/20,17:43:59,27.94,4.81,2.56,1.019,7.84,-49.9,-1.5,-0.5,-2346,27.9,2.16,13.1,
25.84586826,-80.17644322,03:53.5,10/4/20,6,1.576,235.77,-6.99304415,2.06,261.2,254.34,2.01,-6.2,29.7,0,2.95,2.95,91,42,498.5,16.1,-2.6,D,795.8,1,8.067,2,1.68,179,136.02,-80.17638724,25.84581606,0,0,1,N,2.016239,69,69,11,5,5,136.2942,0,9999.99,2.97,3.097,2,9,28.7,0,28.70000076,2.56,1508.73805,10/4/20,17:43:59,27.94,4.81,2.56,1.019,7.84,-49.9,-1.5,-0.5,-2346,27.9,2.16,13.1,
25.84586422,-80.17645262,03:54.5,10/4/20,6,1.847,245.16,-6.99304415,2.06,247.8,240.34,3.53,2.02,29.8,0,2.98,2.98,91,42,498.5,16.1,-2.6,D,795.8,1,8.455,2,1.71,180,129.3,-80.17638724,25.84581606,0,0,1,N,1.157323,75,75,11,5,5,130.3798,0,9999.99,3,3.127,2,9,28.7,0,28.70000076,2.63,1508.81114,10/4/20,17:44:00,27.93,4.923,2.63,0.989,7.88,-52.5,-1.9,-5.8,-1830,27.9,2.15,13.2,
25.84586323,-80.17645885,03:55.5,10/4/20,6,1.405,245.16,-6.99304415,2.06,238.1,230.14,3.69,0.92,29.9,0,2.98,2.98,91,42,498.5,16.1,-2.6,D,785.8,1,8.881,2,1.64,180,126.2,-80.17638724,25.84581606,0,0,1,N,0.7329847,78,78,11,5,5,127.3833,0,9999.99,3.02,3.147,2,9,28.7,0,28.70000076,2.89,1509.08295,10/4/20,17:44:02,27.94,5.381,2.89,0.975,7.84,-50.2,-2.5,-3.8,127423,27.8,2.14,13.3,
25.84586016,-80.176463,03:56.5,10/4/20,6,1.084,245.16,-6.99304415,2.06,224.7,216.02,4.28,2.26,29.9,0,2.95,2.95,91,42,498.5,16.1,-2.6,D,785.8,1,9.029,2,1.65,180,122.9,-80.17638724,25.84581606,0,0,1,N,0.2085016,83,83,11,5,5,123.6417,0,9999.99,2.99,3.117,2,9,28.7,0,28.70000076,2.89,1509.08295,10/4/20,17:44:02,27.94,5.381,2.89,0.975,7.84,-50.2,-2.5,-3.8,127423,27.8,2.14,13.3,
25.84585222,-80.1764655,03:57.6,10/4/20,6,1.479,226.96,-6.99304415,2.06,205.9,196.32,4.14,0.28,29.8,0,2.92,2.92,91,42,498.5,16.1,-2.6,D,785.8,1,8.804,2,1.72,181,117.17,-80.17638724,25.84581606,0,0,1,N,0.6679406,81,81,11,5,5,117.3762,0,9999.99,2.95,3.077,2,9,28.7,0,28.70000076,3.05,1509.25027,10/4/20,17:44:03,27.95,5.66,3.05,0.971,7.85,-50.5,-1.8,-5,-1200,27.8,2.14,13.1,
25.84584377,-80.176465,03:58.6,10/4/20,6,1.659,197.84,-6.99304415,2.06,193.3,183.31,6.25,-0.58,29.9,0.01,2.85,2.86,91,42,498.5,16.1,-2.6,D,785.8,1,8.371,2,1.82,181,111.6,-80.17638724,25.84581606,0,0,1,N,1.454406,95,95,11,5,5,111.8446,0,9999.99,2.89,3.017,2,9,28.7,0,28.70000076,2.83,1509.02055,10/4/20,17:44:05,27.97,5.284,2.83,1.011,7.84,-50.2,-0.7,-4.8,2,27.7,2.14,13.3,
25.84583771,-80.17646345,03:59.6,10/4/20,6,1.996,188.26,-6.99304415,2.06,182.7,172.54,2.91,-1.3,29.9,0.01,2.78,2.79,91,46,498.5,16.1,-2.8,D,720,1,7.997,2,1.86,181,107.52,-80.17638724,25.84581606,0,0,1,N,1.964737,74,74,11,5,5,108.351,0,9999.99,2.83,2.957,2,9,28.7,0,28.70000076,2.83,1509.02055,10/4/20,17:44:05,27.97,5.284,2.83,1.011,7.84,-50.2,-0.7,-4.8,2,27.7,2.14,13.3,
25.84583438,-80.17646066,04:00.6,10/4/20,6,2.139,180.37,-6.99304415,1.45,172.2,162.07,2.45,3.17,29.9,0,2.7,2.7,91,46,498.5,16.1,-2.8,D,720,1,7.625,2,1.93,181,105.49,-80.17638724,25.84581606,0,0,1,N,2.141158,72,72,11,5,5,107.1662,0,9999.99,2.72,2.847,2,9,28.7,0,28.70000076,2.8,1508.98966,10/4/20,17:44:06,27.96,5.23,2.8,0.958,7.81,-48.2,-1.6,-2.8,-3459,27.7,2.13,13.1,
25.84582639,-80.17645981,04:01.6,10/4/20,7,2.022,173.88,-6.99304415,1.35,159.8,149.96,3.4,2.69,30,0,2.67,2.67,91,46,498.5,16.1,-2.8,D,720,1,7.352,2,1.98,181,98.99,-80.17638724,25.84581606,0,0,1,N,2.858116,77,77,11,5,5,102.4891,0,9999.99,2.7,2.827,2,9,28.7,0,28.70000076,2.78,1508.96763,10/4/20,17:44:08,27.96,5.194,2.78,0.951,7.82,-48.9,-1,-4,-2637,27.6,2.13,13.2,
25.84581784,-80.17645539,04:02.7,10/4/20,7,2.134,166.95,-6.99304415,1.35,146.7,137.45,5.17,2.44,30,0,2.6,2.6,91,45,498.4,16.1,-2.8,D,728,1,6.823,2,2.07,181,91.66,-80.17638724,25.84581606,0,0,1,N,3.447846,88,88,11,5,5,98.8345,0,9999.99,2.63,2.757,2,9,28.7,0,28.70000076,2.78,1508.96763,10/4/20,17:44:08,27.96,5.194,2.78,0.951,7.82,-48.9,-1,-4,-2637,27.6,2.13,13.2,
25.84580952,-80.17644824,04:03.7,10/4/20,7,2.198,158.88,-6.99304415,1.35,134.7,126.2,5.22,-1.06,29.9,0.01,2.54,2.54,91,45,498.4,16.1,-2.8,D,728,1,6.148,2,2.14,181,83.21,-80.17638724,25.84581606,0,0,1,N,3.872811,88,88,11,7,7,96.3181,0,9999.99,2.58,2.707,2,9,28.7,0,28.70000076,2.8,1508.98913,10/4/20,17:44:09,27.96,5.231,2.8,1.03,7.84,-50,-2.2,-3.9,-3217,27.5,2.12,13.4,
25.84580197,-80.17643866,04:04.7,10/4/20,7,2.32,145.55,-6.99304415,1.35,124.7,116.91,4.11,1.18,29.9,0,2.48,2.49,91,45,498.4,16.1,-2.8,D,728,2,14.483,2,2.16,181,108.52,-80.17630143,25.8457606,0,0,1,N,4.095401,82,82,11,78,78,104.6773,0,9999.99,2.53,2.657,2,9,28.7,0,28.70000076,2.64,1508.82232,10/4/20,17:44:11,27.95,4.945,2.64,0.975,7.87,-51.8,-2.3,-6,-613,27.5,2.12,13.3,
25.84579682,-80.17642952,04:05.7,10/4/20,7,2.379,133.84,-6.99304415,1.35,114.7,107.66,4.6,5.88,29.9,0,2.51,2.51,91,45,498.4,16.1,-2.8,D,728,2,13.436,2,2.2,181,107.44,-80.17630143,25.8457606,0,0,1,N,4.25689,86,86,11,102,102,101.5298,0,9999.99,2.55,2.677,2,9,28.7,0,28.70000076,2.64,1508.82214,10/4/20,17:44:12,27.94,4.953,2.64,0.971,7.87,-52,-1.4,-0.6,-3159,27.5,2.12,13.2,
25.84579111,-80.17641843,04:06.7,10/4/20,7,2.511,119.37,-6.99304415,1.35,112,105.17,4.2,5.33,29.9,0,2.53,2.54,91,45,498.4,16.1,-2.8,D,730.3,2,12.19,2,2.28,180,106.16,-80.17630143,25.8457606,0,0,1,N,4.122418,82,82,11,112,112,101.4737,0,9999.99,2.57,2.697,2,9,28.7,0,28.70000076,2.64,1508.82214,10/4/20,17:44:12,27.94,4.953,2.64,0.971,7.87,-52,-1.4,-0.6,-3159,27.5,2.12,13.2,
25.84578698,-80.17640646,04:07.7,10/4/20,7,2.496,113.96,-6.99304415,1.35,110.7,103.96,2.23,4.88,29.9,0,2.55,2.55,91,45,498.4,16.1,-2.8,D,730.3,2,10.912,2,2.31,180,105.59,-80.17630143,25.8457606,0,0,1,N,3.796086,70,70,11,112,112,100.3176,0,9999.99,2.58,2.707,2,9,28.7,0,28.70000076,2.67,1508.853,10/4/20,17:44:13,27.94,5.009,2.67,0.991,7.8,-47.8,-3,-3.7,-2579,27.5,2.12,13.3,
25.84578186,-80.17639304,04:08.7,10/4/20,7,2.662,113.76,-6.99304415,1.35,109.2,102.57,2.83,5.67,29.9,0,2.54,2.54,91,45,498.4,16.1,-2.8,D,730.3,2,9.467,2,2.4,180,104.46,-80.17630143,25.8457606,0,0,1,N,3.482526,74,74,11,125,125,102.1608,0,9999.99,2.57,2.697,2,9,28.6,0,28.60000038,2.71,1508.65651,10/4/20,17:44:15,27.94,5.071,2.71,1.015,7.81,-48.5,-2,-5,-1504,27.4,2.12,13.2,
25.84577738,-80.1763792,04:09.7,10/4/20,7,2.671,111.36,-6.99304415,1.35,107.1,100.63,3.48,3.87,29.9,0,2.54,2.54,91,43,498.4,16.1,-2.7,D,765.5,2,8.002,2,2.54,179,103.48,-80.17630143,25.8457606,0,0,1,N,3.086761,78,78,11,143,143,104.5862,0,9999.99,2.57,2.697,2,9,28.7,0,28.70000076,2.72,1508.90496,10/4/20,17:44:16,27.94,5.089,2.72,1.04,7.83,-49.1,-1.4,-1.1,-1882,27.4,2.11,13.2,
25.8457732,-80.17636521,04:10.7,10/4/20,7,2.649,108.72,-6.99304415,1.35,109.1,102.48,2.86,3.94,29.9,0,2.61,2.61,91,43,498.4,16.1,-2.7,D,765.5,2,6.534,2,2.58,178,102.38,-80.17630143,25.8457606,0,0,1,N,2.633904,74,74,11,147,147,107.4613,0,9999.99,2.64,2.767,2,9,28.6,0,28.70000076,2.72,1508.90496,10/4/20,17:44:16,27.94,5.089,2.72,1.04,7.83,-49.1,-1.4,-1.1,-1882,27.4,2.11,13.2,
25.84576976,-80.17635341,04:11.7,10/4/20,7,2.344,103.63,-6.99304415,1.35,111,104.24,2.72,2.82,29.9,0,2.61,2.61,91,43,498.4,16.1,-2.7,D,765.5,2,5.3,2,2.65,176,101.08,-80.17630143,25.8457606,0,0,1,N,2.255583,75,75,11,151,151,109.9377,0,9999.99,2.64,2.767,2,9,28.6,0,28.60000038,2.84,1508.79231,10/4/20,17:44:18,27.95,5.306,2.84,1.006,7.86,-51.4,-1.8,-3.4,-2733,27.3,2.11,13.1,
25.84576545,-80.17633908,04:12.7,10/4/20,7,2.61,105.78,-6.99304415,1.35,111.9,105.07,2.58,2.67,29.9,0,2.64,2.64,91,43,498.4,16.1,-2.7,D,765.5,3,21.991,2,2.62,174,107.76,-80.1761298,25.84570513,0,0,1,N,0.773115,72,72,11,133,133,106.1377,0,9999.99,2.66,2.787,2,9,28.7,0,28.60000038,2.84,1508.79231,10/4/20,17:44:18,27.95,5.306,2.84,1.006,7.86,-51.4,-1.8,-3.4,-2733,27.3,2.11,13.1,
25.84576172,-80.17632529,04:13.7,10/4/20,7,2.611,106.66,-6.99304415,1.35,112.6,105.72,2.84,3.31,29.9,0,2.65,2.65,91,39,498.4,16.1,-2.4,D,855.8,3,20.551,2,2.61,173,107.83,-80.1761298,25.84570513,0,0,1,N,0.6965111,74,74,11,128,128,106.0358,0,9999.99,2.68,2.807,2,9,28.6,0,28.60000038,2.96,1508.91767,10/4/20,17:44:19,27.95,5.515,2.96,1.013,7.81,-47.9,-2.4,-8.2,-1946,27.3,2.11,13.3,
25.84575668,-80.17631161,04:14.8,10/4/20,7,2.629,109.41,-6.99304415,1.35,112,105.17,3.88,0.94,29.9,0,2.65,2.65,91,39,498.4,16.1,-2.4,D,855.8,3,19.076,2,2.61,171,107.49,-80.1761298,25.84570513,0,0,1,N,0.760321,79,79,11,125,125,104.9595,0,9999.99,2.67,2.797,2,9,28.6,0,28.60000038,2.69,1508.6357,10/4/20,17:44:21,27.95,5.032,2.69,1.049,7.86,-51.1,-0.9,-4.2,-2667,27.3,2.11,13.2,
25.84575268,-80.17629887,04:15.7,10/4/20,7,2.36,108.49,-6.99304415,1.35,113.4,106.46,2.83,1.61,30,0,2.65,2.65,91,39,498.4,16.1,-2.4,D,855.8,3,17.726,2,2.54,170,107.35,-80.1761298,25.84570513,0,0,1,N,0.7476482,75,75,11,120,120,104.4119,0,9999.99,2.67,2.797,2,9,28.6,0,28.60000038,2.69,1508.6357,10/4/20,17:44:21,27.95,5.032,2.69,1.049,7.86,-51.1,-0.9,-4.2,-2667,27.3,2.11,13.2,
25.84575005,-80.17628651,04:16.8,10/4/20,7,2.352,107.22,-6.99304415,1.35,113.1,106.18,3.91,0.1,30,0,2.64,2.64,91,33,498.3,16.1,-2.1,D,984,3,16.459,2,2.52,169,107.67,-80.1761298,25.84570513,0,0,1,N,0.6092756,80,80,11,124,124,105.3992,0,9999.99,2.67,2.797,2,9,28.6,0,28.60000038,2.66,1508.60477,10/4/20,17:44:22,27.94,4.993,2.66,0.95,7.8,-47.9,-1.5,-3.1,-1003,27.3,2.11,13.2,
25.84574649,-80.17627531,04:17.8,10/4/20,7,2.423,110.98,-6.99304415,1.35,113,106.09,3.86,1.01,30,0,2.64,2.64,91,33,498.3,16.1,-2.1,D,984,3,15.271,2,2.46,168,107.53,-80.1761298,25.84570513,0,0,1,N,0.6000093,80,80,11,124,124,105.4649,0,9999.99,2.67,2.797,2,9,28.6,0,28.60000038,2.65,1508.59422,10/4/20,17:44:23,27.94,4.973,2.65,0.974,7.85,-50.3,-1.5,-3.4,-1837,27.3,2.11,13.2,
25.84574236,-80.17626433,04:18.8,10/4/20,7,2.43,111.97,-6.99304415,1.35,112.4,105.54,4.04,1.76,30,0,2.64,2.64,91,33,498.3,16.1,-2.1,D,984,3,14.085,2,2.42,168,107.09,-80.1761298,25.84570513,0,0,1,N,0.6653486,82,82,11,126,126,104.9997,0,9999.99,2.67,2.797,2,9,28.6,0,28.60000038,2.59,1508.53156,10/4/20,17:44:25,27.93,4.856,2.59,0.967,7.84,-49.9,-1.5,-4.9,-497,27.3,2.11,13.3,
25.84573703,-80.17625223,04:19.8,10/4/20,7,2.208,109.16,-6.99304415,1.35,113,106.09,3.84,-1.43,30,0,2.64,2.64,91,33,498.3,16.1,-2.1,D,984,3,12.755,2,2.38,167,106.15,-80.1761298,25.84570513,0,0,1,N,0.8088953,79,79,11,117,117,103.9806,0,9999.99,2.67,2.797,2,9,28.6,0,28.60000038,2.59,1508.53156,10/4/20,17:44:25,27.93,4.856,2.59,0.967,7.84,-49.9,-1.5,-4.9,-497,27.3,2.11,13.3,
25.84573381,-80.17624286,04:20.7,10/4/20,7,2.267,108.79,-6.99304415,1.35,112.8,105.91,3.58,0.93,30,0,2.65,2.65,91,33,498.3,16.1,-2,D,1013.9,3,11.755,2,2.33,167,105.74,-80.1761298,25.84570513,0,0,1,N,0.8303236,75,75,11,118,118,103.8285,0,9999.99,2.68,2.807,2,9,28.6,0,28.60000038,2.58,1508.52095,10/4/20,17:44:26,27.92,4.848,2.58,1.002,7.83,-49.4,-0.8,-5.2,-528,27.3,2.11,13.2,
25.84573118,-80.17623278,04:21.8,10/4/20,7,2.109,107.44,-6.99304415,1.35,111.7,104.89,4.38,0.67,30,0,2.62,2.62,91,33,498.3,16.1,-2,D,1013.9,3,10.705,2,2.3,167,105.7,-80.1761298,25.84570513,0,0,1,N,0.7638299,83,83,11,125,125,104.3001,0,9999.99,2.65,2.777,2,9,28.6,0,28.60000038,2.6,1508.54166,10/4/20,17:44:28,27.93,4.879,2.6,0.981,7.83,-49.3,-1.3,-4,-772,27.3,2.11,13.2,
25.84572718,-80.17622212,04:22.8,10/4/20,7,2.13,109.58,-6.99304415,1.35,114.6,107.57,3.4,0.41,30,0,2.62,2.63,91,33,498.3,16.1,-2,D,1013.9,3,9.559,2,2.25,166,104.86,-80.1761298,25.84570513,0,0,1,N,0.8169552,79,79,11,115,115,103.923,0,9999.99,2.66,2.787,2,9,28.6,0,28.60000038,2.6,1508.54166,10/4/20,17:44:28,27.93,4.879,2.6,0.981,7.83,-49.3,-1.3,-4,-772,27.3,2.11,13.2,
25.84572249,-80.1762098,04:23.8,10/4/20,7,2.232,108.36,-6.99304415,1.35,115.9,108.77,3.63,-1.38,30,0,2.63,2.63,91,32,498.3,16.1,-1.9,D,1043.8,3,8.236,2,2.24,166,103.56,-80.1761298,25.84570513,0,0,1,N,0.8843321,79,79,11,106,106,103.446,0,9999.99,2.66,2.787,2,9,28.6,0,28.60000038,2.6,1508.54196,10/4/20,17:44:29,27.92,4.883,2.6,0.976,7.86,-51.2,-2.2,-5,-491,27.3,2.11,13.2,
25.84571732,-80.1762004,04:24.8,10/4/20,7,2.222,112.57,-6.99304415,1.35,119.1,111.73,3.89,-1.19,30,0,2.64,2.65,91,31,498.3,16.1,-1.9,D,1059.8,3,7.194,2,2.2,166,100.86,-80.1761298,25.84570513,0,0,1,N,1.100953,80,80,11,88,88,101.9184,0,9999.99,2.68,2.807,2,9,28.6,0,28.60000038,2.85,1508.80291,10/4/20,17:44:31,27.92,5.314,2.85,0.946,7.79,-46.8,-2.1,-4.5,-5736,27.4,2.11,13.2,
25.84571284,-80.17619104,04:25.7,10/4/20,7,2.072,114.76,-6.99304415,1.35,116.4,109.24,4.28,-2.56,30,0,2.67,2.67,91,31,498.3,16.1,-1.9,D,1059.8,3,6.188,2,2.21,166,97.96,-80.1761298,25.84570513,0,0,1,N,1.256943,83,83,11,93,93,100.8254,0,9999.99,2.71,2.837,2,9,28.6,0,28.60000038,2.85,1508.80291,10/4/20,17:44:31,27.92,5.314,2.85,0.946,7.79,-46.8,-2.1,-4.5,-5736,27.4,2.11,13.2,
25.84570861,-80.1761837,04:26.8,10/4/20,7,2.181,120.23,-6.99304415,1.35,115.2,108.13,3.85,1.25,30,0,2.69,2.7,91,31,498.3,16.1,-1.9,D,1059.8,3,5.408,2,2.14,166,94.11,-80.1761298,25.84570513,0,0,1,N,1.449833,80,80,11,90,90,99.48251,0,9999.99,2.73,2.857,2,9,28.6,0,28.60000038,2.88,1508.83492,10/4/20,17:44:32,27.94,5.362,2.88,0.985,7.83,-49.3,-1.7,-3.2,-3271,27.4,2.12,13.1,
25.84570502,-80.17617413,04:27.8,10/4/20,7,1.947,115.95,-6.99304415,1.35,117.4,110.16,3.49,0.1,30,0,2.74,2.75,91,31,498.3,16.1,-1.9,D,1071.9,3,4.437,2,2.06,166,89.85,-80.1761298,25.84570513,0,0,1,N,1.502316,78,78,11,84,84,99.11757,0,9999.99,2.78,2.907,2,9,28.6,0,28.60000038,2.8,1508.75096,10/4/20,17:44:34,27.96,5.238,2.8,0.966,7.82,-48.7,-0.4,-6.8,-750,27.4,2.12,13.1,
25.84569997,-80.17616562,04:28.8,10/4/20,7,1.998,117.25,-6.99304415,1.35,117.3,110.07,2.76,1.05,30,0,2.72,2.72,91,31,498.3,16.1,-1.9,D,1071.9,4,16.141,2,2.06,166,115.02,-80.17601947,25.84563857,0,0,1,N,2.491261,74,74,11,128,128,110.3324,0,9999.99,2.75,2.877,2,9,28.6,0,28.60000038,2.8,1508.75096,10/4/20,17:44:34,27.96,5.238,2.8,0.966,7.82,-48.7,-0.4,-6.8,-750,27.4,2.12,13.1,
25.84569517,-80.17615687,04:29.8,10/4/20,7,2.125,117.16,-6.99304415,1.35,116.9,109.7,4.06,-0.27,30,0,2.75,2.75,91,31,498.2,16.1,-1.9,D,1057.6,4,15.122,2,2.09,166,114.59,-80.17601947,25.84563857,0,0,1,N,2.447431,78,78,11,125,125,109.3625,0,9999.99,2.77,2.897,2,9,28.6,0,28.60000038,2.95,1508.90724,10/4/20,17:44:35,27.96,5.501,2.95,0.959,7.8,-47.6,-1.6,-5.6,-729,27.5,2.12,13.3,
25.84568969,-80.17614635,04:30.8,10/4/20,7,2.085,117.12,-6.99304415,1.35,119,111.64,3.52,1.4,30.1,0,2.73,2.73,91,31,498.2,16.1,-1.9,D,1057.6,4,13.911,2,2.07,166,114.12,-80.17601947,25.84563857,0,0,1,N,2.365279,82,82,11,114,114,108.1906,0,9999.99,2.77,2.897,2,9,28.6,0,28.60000038,2.94,1508.89716,10/4/20,17:44:37,27.97,5.47,2.94,0.944,7.81,-48,-0.1,-2,-159,27.4,2.11,13.3,
25.84568619,-80.17613773,04:31.8,10/4/20,7,2.087,115.21,-6.99304415,1.35,118.7,111.36,4.08,-2.05,30.1,0,2.69,2.69,91,31,498.2,16.1,-1.9,D,1057.6,4,12.966,2,2.09,166,114.11,-80.17601947,25.84563857,0,0,1,N,2.203304,79,79,11,113,113,108.4362,0,9999.99,2.72,2.847,2,9,28.6,0,28.60000038,2.94,1508.89716,10/4/20,17:44:37,27.97,5.47,2.94,0.944,7.81,-48,-0.1,-2,-159,27.4,2.11,13.3,
25.84568058,-80.17612665,04:32.8,10/4/20,7,2.103,119.39,-6.99304415,1.35,116,108.87,5.03,-1.66,30.1,0,2.63,2.63,91,31,498.2,16.1,-1.9,D,1057.5,4,11.699,2,2.1,166,113.53,-80.17601947,25.84563857,0,0,1,N,2.112752,87,87,11,128,128,109.0412,0,9999.99,2.66,2.787,2,9,28.6,0,28.60000038,2.78,1508.72976,10/4/20,17:44:38,27.97,5.191,2.78,0.999,7.86,-51,-1,-4,-237,27.4,2.11,13,
25.84567671,-80.17611696,04:33.8,10/4/20,7,2.046,116.34,-6.99304415,1.35,116.7,109.51,2.87,1.86,30.1,0,2.64,2.64,91,31,498.2,16.1,-1.9,D,1057.5,4,10.638,2,2.08,166,113.5,-80.17601947,25.84563857,0,0,1,N,1.931473,72,72,11,128,128,110.2623,0,9999.99,2.68,2.807,2,9,28.6,0,28.60000038,2.66,1508.60485,10/4/20,17:44:40,27.95,4.976,2.66,0.954,7.81,-48.2,-0.9,-6.6,1612,27.3,2.11,13.2,
25.84567346,-80.17610725,04:34.8,10/4/20,7,1.849,116.34,-6.99304415,1.35,116,108.87,4.56,-0.34,30,0,2.61,2.62,91,31,498.2,16.1,-1.9,D,1057.5,4,9.603,2,2.14,166,113.83,-80.17601947,25.84563857,0,0,1,N,1.695034,84,84,11,139,139,111.8721,0,9999.99,2.64,2.767,2,9,28.6,0,28.60000038,2.66,1508.60485,10/4/20,17:44:40,27.95,4.976,2.66,0.954,7.81,-48.2,-0.9,-6.6,1612,27.3,2.11,13.2,
25.84566981,-80.17609589,04:35.8,10/4/20,7,2.18,116.34,-6.99304415,1.35,114.4,107.39,4.5,1.15,30.1,0,2.6,2.6,91,31,498.2,16.1,-1.9,D,1057.5,4,8.4,2,2.13,166,114.43,-80.17601947,25.84563857,0,0,1,N,1.401126,84,84,11,153,153,113.9017,0,9999.99,2.63,2.757,2,9,28.6,0,28.60000038,2.59,1508.53159,10/4/20,17:44:41,27.94,4.868,2.59,1.046,7.85,-50.9,-1.2,-5.9,-2497,27.3,2.11,13.4,
25.84566618,-80.17608607,04:36.8,10/4/20,7,2.101,115.6,-6.99304415,1.35,115.2,108.13,5.12,-0.98,30.1,0,2.62,2.63,91,31,498.2,16.1,-1.9,D,1048.4,4,7.338,2,2.13,166,114.73,-80.17601947,25.84563857,0,0,1,N,1.191784,86,86,11,156,156,115.3623,0,9999.99,2.66,2.787,2,9,28.6,0,28.60000038,2.55,1508.48984,10/4/20,17:44:43,27.92,4.786,2.55,1.018,7.84,-49.8,-1.8,-9.8,-3368,27.4,2.12,13.4,
25.84566351,-80.17607546,04:37.8,10/4/20,7,2.105,111.24,-6.99304415,1.35,117.1,109.88,3.61,1.19,30.1,0,2.64,2.65,91,31,498.2,16.1,-1.9,D,1048.4,4,6.251,2,2.17,165,116.33,-80.17601947,25.84563857,0,0,1,N,0.8502696,79,79,11,159,159,117.7682,0,9999.99,2.69,2.817,2,9,28.6,0,28.60000038,2.55,1508.48984,10/4/20,17:44:43,27.92,4.786,2.55,1.018,7.84,-49.8,-1.8,-9.8,-3368,27.4,2.12,13.4,
25.84565974,-80.17606451,04:38.8,10/4/20,7,2.12,108.05,-6.99304415,1.35,120.7,113.21,3.39,-0.17,30.1,0,2.63,2.63,91,31,498.2,16.1,-1.9,D,1048.4,5,21.032,2,2.15,165,113.9,-80.17587236,25.84558311,0,0,1,N,0.4358076,77,77,11,133,133,114.6227,0,9999.99,2.66,2.787,2,9,28.6,0,28.60000038,2.64,1508.5838,10/4/20,17:44:44,27.92,4.944,2.64,0.948,7.82,-48.7,-2,-5.8,-3024,27.4,2.12,13.2,
25.84565656,-80.17605571,04:39.8,10/4/20,7,2.106,112.1,-6.99304415,1.35,121.9,114.32,2.44,-2.71,30.1,0,2.59,2.59,91,31,498.1,16.1,-1.9,D,1076.6,5,20.084,2,2.05,165,114,-80.17587236,25.84558311,0,0,1,N,0.4450397,74,74,11,132,132,114.8134,0,9999.99,2.62,2.747,2,9,28.6,0,28.60000038,2.78,1508.72964,10/4/20,17:44:46,27.94,5.2,2.78,0.958,7.81,-48.4,-0.1,-1.2,-1765,27.4,2.12,13.2,
25.84565139,-80.17604543,04:40.9,10/4/20,7,2.052,114.1,-6.99304415,1.35,122.1,114.51,3.36,-0.63,30.1,0,2.6,2.6,91,31,498.1,16.1,-1.9,D,1076.6,5,18.911,2,2.03,165,113.67,-80.17587236,25.84558311,0,0,1,N,0.3137085,77,77,11,126,126,114.3517,0,9999.99,2.62,2.747,2,9,28.6,0,28.60000038,2.78,1508.72964,10/4/20,17:44:46,27.94,5.2,2.78,0.958,7.81,-48.4,-0.1,-1.2,-1765,27.4,2.12,13.2,
25.84564559,-80.17603655,04:41.9,10/4/20,7,2.027,114.74,-6.99304415,1.35,121.1,113.58,4.2,-0.33,30.1,0,2.6,2.6,91,31,498.1,16.1,-1.9,D,1076.6,5,17.84,2,2.06,165,112.92,-80.17587236,25.84558311,0,0,1,N,6.06E-02,82,82,11,125,125,113.0757,0,9999.99,2.62,2.747,2,9,28.6,0,28.60000038,2.67,1508.61476,10/4/20,17:44:47,27.94,5.006,2.67,1.043,7.85,-50.9,-2,-2.2,-670,27.4,2.12,13.3,
25.84564233,-80.17602693,04:42.9,10/4/20,7,2.06,113.2,-6.99304415,1.35,120.5,113.03,4.21,0.45,30.2,0,2.55,2.56,91,31,498.1,16.1,-1.9,D,1076.6,5,16.812,2,2.08,165,113.06,-80.17587236,25.84558311,0,0,1,N,9.80E-02,81,81,11,125,125,113.3553,0,9999.99,2.59,2.717,2,9,28.6,0,28.60000038,2.64,1508.58358,10/4/20,17:44:48,27.94,4.949,2.64,1.032,7.86,-51,-1.1,-5.1,-2895,27.4,2.12,13.3,
25.84563897,-80.17601817,04:43.9,10/4/20,7,1.925,115.04,-6.99304415,1.35,121.1,113.58,2.96,-1.33,30.1,0,2.54,2.54,91,31,498.1,16.1,-1.9,D,1075.5,5,15.859,2,2.07,165,113.06,-80.17587236,25.84558311,0,0,1,N,9.23E-02,75,75,11,123,123,113.3884,0,9999.99,2.57,2.697,2,9,28.6,0,28.60000038,2.72,1508.66715,10/4/20,17:44:50,27.94,5.098,2.72,0.953,7.83,-49.5,-1.5,-3.2,598,27.4,2.12,13.2,
25.84563416,-80.176009,04:44.9,10/4/20,7,2.025,116.71,-6.99304415,1.35,120.4,112.93,4,-0.56,30.1,0,2.54,2.54,91,31,498.1,16.1,-1.9,D,1075.5,5,14.805,2,2.03,165,112.54,-80.17587236,25.84558311,0,0,1,N,4.62E-02,81,81,11,125,125,112.3975,0,9999.99,2.57,2.697,2,9,28.6,0,28.60000038,2.82,1508.77152,10/4/20,17:44:51,27.94,5.256,2.82,0.981,7.8,-47.8,-0.5,-4.2,-38,27.4,2.11,13.3,
25.84563003,-80.17599883,04:45.9,10/4/20,7,2.009,113.54,-6.99304415,1.35,119.5,112.1,4.05,2.16,30.1,0,2.54,2.54,91,30,498.1,16.1,-1.9,D,1081,5,13.689,2,2.07,165,112.4,-80.17587236,25.84558311,0,0,1,N,8.03E-02,80,80,11,126,126,112.1534,0,9999.99,2.57,2.697,2,9,28.6,0,28.60000038,2.82,1508.77152,10/4/20,17:44:51,27.94,5.256,2.82,0.981,7.8,-47.8,-0.5,-4.2,-38,27.4,2.11,13.3,
25.84562654,-80.1759898,04:46.9,10/4/20,7,1.908,112.62,-6.99304415,1.35,120.9,113.4,2.82,0.95,30.1,0,2.55,2.55,91,30,498.1,16.1,-1.9,D,1081,5,12.706,2,2.07,165,112.34,-80.17587236,25.84558311,0,0,1,N,8.48E-02,74,74,11,121,121,112.1214,0,9999.99,2.59,2.717,2,9,28.6,0,28.60000038,2.79,1508.74032,10/4/20,17:44:52,27.95,5.207,2.79,0.981,7.82,-48.5,-0.9,-0.1,-2541,27.4,2.11,13.3,
25.84562198,-80.17597998,04:47.9,10/4/20,7,1.919,115.14,-6.99304415,1.35,119.1,111.73,3.46,-0.7,30.1,0,2.56,2.56,91,30,498.1,16.1,-1.9,D,1081,5,11.605,2,2.1,165,111.87,-80.17587236,25.84558311,0,0,1,N,0.178117,78,78,11,126,126,111.4531,0,9999.99,2.59,2.717,2,9,28.6,0,28.60000038,2.81,1508.76153,10/4/20,17:44:54,27.95,5.241,2.81,0.973,7.86,-51.2,-0.7,-4,-3391,27.3,2.11,13.1,
25.84561691,-80.17596959,04:48.9,10/4/20,7,2.134,116.92,-6.99304415,1.35,119.1,111.73,3.72,-0.1,30.1,0,2.59,2.59,91,31,498.1,16.1,-1.9,D,1073.1,5,10.43,2,2.09,165,111.12,-80.17587236,25.84558311,0,0,1,N,0.2968729,79,79,11,122,122,110.6033,0,9999.99,2.61,2.737,2,9,28.6,0,28.60000038,2.77,1508.71954,10/4/20,17:44:55,27.95,5.178,2.77,1.047,7.83,-49.6,-0.6,-3,-4317,27.3,2.1,13.3,
25.84561235,-80.17595961,04:49.9,10/4/20,7,2.001,115.22,-6.99304415,1.35,119.6,112.19,3.05,-1.14,30.2,0,2.57,2.58,91,31,498.1,16.1,-1.9,D,1073.1,5,9.317,2,2.09,165,110.42,-80.17587236,25.84558311,0,0,1,N,0.3766484,77,77,11,118,118,110.033,0,9999.99,2.61,2.737,2,9,28.6,0,28.60000038,2.77,1508.71944,10/4/20,17:44:56,27.94,5.185,2.77,0.966,7.84,-50.2,-1.2,-5.6,77,27.2,2.1,13.3,
25.84560725,-80.17594974,04:50.9,10/4/20,7,2.185,115.73,-6.99304415,1.35,119.3,111.92,4.14,-0.49,30.2,0,2.61,2.61,91,31,498.1,16.1,-1.9,D,1073.1,5,8.196,2,2.07,165,109.12,-80.17587236,25.84558311,0,0,1,N,0.5178626,82,82,11,115,115,109.0249,0,9999.99,2.63,2.757,2,9,28.6,0,28.60000038,2.77,1508.71944,10/4/20,17:44:56,27.94,5.185,2.77,0.966,7.84,-50.2,-1.2,-5.6,77,27.2,2.1,13.3,
25.84560261,-80.17594016,04:51.9,10/4/20,7,2.17,115.94,-6.99304415,1.35,119.7,112.29,3.93,-0.91,30.1,0,2.53,2.53,91,31,498.1,16.1,-1.9,D,1073.1,5,7.123,2,2.07,165,107.72,-80.17587236,25.84558311,0,0,1,N,0.6202083,81,81,11,111,111,108.2958,0,9999.99,2.56,2.687,2,9,28.6,0,28.60000038,2.79,1508.74056,10/4/20,17:44:57,27.94,5.214,2.79,1.006,7.84,-50.3,-1.9,-3.7,-2122,27.2,2.1,13.3,
25.84559936,-80.17593049,04:52.9,10/4/20,7,1.913,114.38,-6.99304415,1.35,118.3,110.99,3.99,1.34,30.2,0,2.53,2.53,91,31,498,16.1,-1.9,D,1077.5,5,6.092,2,2.06,165,107.25,-80.17587236,25.84558311,0,0,1,N,0.5813558,79,79,11,115,115,108.5723,0,9999.99,2.56,2.687,2,9,28.6,0,28.60000038,2.83,1508.78201,10/4/20,17:44:59,27.95,5.282,2.83,0.966,7.81,-48.1,0.3,-4.2,-1880,27.2,2.1,13.3,
25.84559603,-80.17592096,04:53.9,10/4/20,7,1.967,113.84,-6.99304415,1.35,118.2,110.9,2.56,1.29,30.2,0,2.56,2.56,91,31,498,16.1,-1.9,D,1077.5,5,5.072,2,2.07,165,106.46,-80.17587236,25.84558311,0,0,1,N,0.5558195,72,72,11,118,118,108.7546,0,9999.99,2.6,2.727,2,9,28.6,0,28.60000038,2.83,1508.78201,10/4/20,17:44:59,27.95,5.282,2.83,0.966,7.81,-48.1,0.3,-4.2,-1880,27.2,2.1,13.3,
25.84559199,-80.1759103,04:54.9,10/4/20,7,2.054,113.62,-6.99304415,1.35,115.8,108.68,3.92,0.06,30.2,0,2.57,2.57,91,31,498,16.1,-1.9,D,1077.5,6,14.397,2,2.08,165,109.01,-80.17577428,25.84554983,0,0,1,N,0.4178298,81,81,11,126,126,108.4498,0,9999.99,2.59,2.717,2,9,28.6,0,28.60000038,2.83,1508.78215,10/4/20,17:45:00,27.95,5.282,2.83,0.939,7.81,-48,-0.4,-3.6,-2433,27.2,2.1,13.3,
25.84558779,-80.175899,04:55.9,10/4/20,7,2.068,111.15,-6.99304415,1.35,116,108.87,3.98,-0.41,30.2,0,2.58,2.58,91,30,498,16.1,-1.9,D,1080.9,6,13.176,2,2.05,165,108.69,-80.17577428,25.84554983,0,0,1,N,0.4547299,81,81,11,124,124,108.0143,0,9999.99,2.61,2.737,2,9,28.6,0,28.60000038,2.89,1508.84486,10/4/20,17:45:02,27.95,5.395,2.89,1.028,7.84,-50.2,-0.5,-1.6,-2594,27.2,2.1,13,
25.84558482,-80.1758894,04:57.0,10/4/20,7,2.091,110.82,-6.99304415,1.35,116.7,109.51,3.45,0.6,30.2,0,2.56,2.57,91,30,498,16.1,-1.9,D,1080.9,6,12.16,2,2.03,165,108.66,-80.17577428,25.84554983,0,0,1,N,0.4226637,79,79,11,122,122,108.2323,0,9999.99,2.6,2.727,2,9,28.6,0,28.60000038,2.89,1508.84486,10/4/20,17:45:02,27.95,5.395,2.89,1.028,7.84,-50.2,-0.5,-1.6,-2594,27.2,2.1,13,
25.84558132,-80.17587846,04:58.0,10/4/20,7,1.987,112.12,-6.99304415,1.35,115.7,108.59,3.71,-0.4,30.1,0,2.57,2.57,91,30,498,16.1,-1.9,D,1080.9,6,10.998,2,2.04,165,108.56,-80.17577428,25.84554983,0,0,1,N,0.4037038,79,79,11,125,125,107.9999,0,9999.99,2.6,2.727,2,9,28.6,0,28.60000038,2.93,1508.8865,10/4/20,17:45:03,27.96,5.464,2.93,0.936,7.84,-50.1,-1.2,-5.1,-2528,27.2,2.1,13.2,
25.84557743,-80.17586781,04:59.0,10/4/20,7,2.014,112.26,-6.99304415,1.35,114.6,107.57,3.55,-0.17,30.1,0,2.57,2.57,91,30,498,16.1,-1.9,D,1080.9,6,9.85,2,2.04,165,108.16,-80.17577428,25.84554983,0,0,1,N,0.4320673,78,78,11,127,127,107.5673,0,9999.99,2.6,2.727,2,9,28.6,0,28.60000038,2.92,1508.87609,10/4/20,17:45:05,27.96,5.437,2.92,0.948,7.83,-49.6,-0.3,-1.3,-1089,27.3,2.1,13.3,
25.84557491,-80.1758575,05:00.0,10/4/20,7,1.91,110.66,-6.99304415,1.35,113.8,106.83,2.99,0.29,30.2,0,2.58,2.58,91,30,498,16.1,-1.9,D,1081.4,6,8.782,2,2.05,165,108.51,-80.17577428,25.84554983,0,0,1,N,0.3344358,75,75,11,133,133,108.2639,0,9999.99,2.61,2.737,2,9,28.6,0,28.60000038,2.92,1508.87609,10/4/20,17:45:05,27.96,5.437,2.92,0.948,7.83,-49.6,-0.3,-1.3,-1089,27.3,2.1,13.3,
25.84557131,-80.17584735,05:01.0,10/4/20,7,2.105,110.63,-6.99304415,1.35,111.5,104.7,4.01,-0.19,30.1,0,2.59,2.59,91,30,498,16.1,-1.9,D,1081.4,6,7.693,2,2.01,165,108.08,-80.17577428,25.84554983,0,0,1,N,0.3515537,81,81,11,141,141,108.1415,0,9999.99,2.62,2.747,2,9,28.6,0,28.60000038,2.73,1508.67759,10/4/20,17:45:07,27.94,5.099,2.73,1.019,7.82,-49.1,0.1,-10.6,-2101,27.3,2.11,13.1,
25.84556746,-80.17583641,05:02.0,10/4/20,7,2.052,111.75,-6.99304415,1.35,112.9,106,3.06,-0.34,30.1,0,2.61,2.61,91,30,498,16.1,-1.9,D,1081.4,6,6.52,2,2.05,165,107.5,-80.17577428,25.84554983,0,0,1,N,0.3658133,75,75,11,135,135,108.0395,0,9999.99,2.64,2.767,2,9,28.6,0,28.60000038,2.73,1508.67759,10/4/20,17:45:07,27.94,5.099,2.73,1.019,7.82,-49.1,0.1,-10.6,-2101,27.3,2.11,13.1,
25.84556442,-80.1758254,05:03.0,10/4/20,7,2.134,108.67,-6.99304415,1.35,112.4,105.54,3.49,-1.42,30.2,0,2.61,2.61,91,31,498,16.1,-1.9,D,1074.6,6,5.366,2,2.05,165,107.59,-80.17577428,25.84554983,0,0,1,N,0.294691,78,78,11,139,139,108.5481,0,9999.99,2.64,2.767,2,9,28.6,0,28.60000038,2.69,1508.63581,10/4/20,17:45:08,27.94,5.036,2.69,0.98,7.81,-48.5,-0.5,-1.1,998,27.3,2.11,13.2,
25.84556119,-80.17581421,05:04.0,10/4/20,7,2.188,106.99,-6.99304415,1.35,111.7,104.89,3.88,-1.19,30.2,0,2.6,2.6,91,31,498,16.1,-1.9,D,1074.6,7,16.686,2,2.03,165,102.92,-80.17565169,25.84552764,0,0,1,N,0.4588005,80,80,11,122,122,103.6423,0,9999.99,2.63,2.757,2,9,28.6,0,28.60000038,2.67,1508.61487,10/4/20,17:45:09,27.93,4.998,2.67,1.08,7.88,-52.6,0.4,-6.8,876,27.3,2.11,13.4,
25.84555677,-80.17580307,05:05.0,10/4/20,7,2.208,107.99,-6.99304415,1.35,113.5,106.55,3,-0.93,30.2,0,2.58,2.59,91,31,498,16.1,-1.9,D,1074.6,7,15.491,2,2.03,165,102.07,-80.17565169,25.84552764,0,0,1,N,0.2016074,72,72,11,107,107,102.4706,0,9999.99,2.61,2.737,2,9,28.6,0,28.60000038,2.58,1508.52094,10/4/20,17:45:10,27.93,4.844,2.58,0.934,7.84,-49.8,-0.4,-6.3,-1040,27.3,2.11,13.2,
25.84555383,-80.175794,05:06.0,10/4/20,7,2.098,110.28,-6.99304415,1.35,113.2,106.28,3.03,1.22,30.2,0,2.61,2.61,91,31,498,16.1,-1.9,D,1074.6,7,14.562,2,2.07,165,101.69,-80.17565169,25.84552764,0,0,1,N,9.54E-02,76,76,11,110,110,101.9337,0,9999.99,2.64,2.767,2,9,28.6,0,28.60000038,2.52,1508.45866,10/4/20,17:45:12,27.9,4.743,2.52,1.045,7.87,-52.1,-0.9,-6.3,-1116,27.4,2.12,13.3,
25.8455505,-80.17578317,05:07.1,10/4/20,7,2.182,109.06,-6.99304415,1.35,111.1,104.33,3.73,-0.66,30.2,0,2.66,2.66,91,30,497.9,16.1,-1.9,D,1081.9,7,13.485,2,2.09,165,101.09,-80.17565169,25.84552764,0,0,1,N,5.50E-02,79,79,11,114,114,101.0154,0,9999.99,2.69,2.817,2,9,28.6,0,28.60000038,2.52,1508.45866,10/4/20,17:45:12,27.9,4.743,2.52,1.045,7.87,-52.1,-0.9,-6.3,-1116,27.4,2.12,13.3,
25.84554733,-80.17577283,05:08.1,10/4/20,7,2.194,109.16,-6.99304415,1.35,109.5,102.85,3.51,-0.29,30.3,0,2.64,2.64,91,30,497.9,16.1,-1.9,D,1081.9,7,12.32,2,2.08,165,100.53,-80.17565169,25.84552764,0,0,1,N,0.1739957,78,78,11,115,115,100.126,0,9999.99,2.67,2.797,2,9,28.6,0,28.60000038,2.52,1508.45816,10/4/20,17:45:14,27.9,4.735,2.52,0.958,7.86,-51.1,-1,-5.3,-1640,27.6,2.13,13.1,
25.845544,-80.17576283,05:09.1,10/4/20,7,2.092,109.22,-6.99304415,1.35,107.7,101.18,3.2,1.45,30.2,0,2.64,2.64,91,30,497.9,16.1,-1.9,D,1081.9,7,11.221,2,2.07,165,99.78,-80.17565169,25.84552764,0,0,1,N,0.3065993,76,76,11,119,119,99.17728,0,9999.99,2.67,2.797,2,9,28.6,0,28.60000038,2.54,1508.47898,10/4/20,17:45:15,27.91,4.777,2.54,0.951,7.82,-48.8,-0.6,-4.1,-2820,27.7,2.14,13.3,
25.84554188,-80.17575238,05:10.1,10/4/20,7,1.957,109.22,-6.99304415,1.35,107.9,101.37,3.62,0.01,30.2,0,2.68,2.68,91,30,497.9,16.1,-1.9,D,1081.9,7,10.2,2,2.07,165,98.93,-80.17565169,25.84552764,0,0,1,N,0.4496869,79,79,11,115,115,98.30398,0,9999.99,2.71,2.837,2,9,28.6,0,28.60000038,2.54,1508.47898,10/4/20,17:45:15,27.91,4.777,2.54,0.951,7.82,-48.8,-0.6,-4.1,-2820,27.7,2.14,13.3,
25.8455405,-80.17574417,05:11.1,10/4/20,7,1.934,109.22,-6.99304415,1.35,105.9,99.51,3.49,-1.54,30.2,0,2.7,2.7,91,30,497.9,16.1,-1.9,D,1080,7,9.196,2,2.06,165,98.45,-80.17565169,25.84552764,0,0,1,N,0.4651257,78,78,11,121,121,98.04459,0,9999.99,2.73,2.857,2,9,28.6,0,28.60000038,2.58,1508.52081,10/4/20,17:45:17,27.91,4.841,2.58,0.927,7.82,-48.9,-0.2,-1.7,-1782,27.8,2.14,13.2,
25.8455375,-80.17573467,05:12.1,10/4/20,7,1.905,109.22,-6.99304415,1.35,106.4,99.98,3.88,0.08,30.3,0,2.71,2.71,91,30,497.9,16.1,-1.9,D,1080,7,8.325,2,2.06,165,98.21,-80.17565169,25.84552764,0,0,1,N,0.4541298,80,80,11,118,118,98.12283,0,9999.99,2.74,2.867,2,9,28.6,0,28.60000038,2.61,1508.55214,10/4/20,17:45:18,27.92,4.89,2.61,0.997,7.83,-49.4,-0.7,-4.2,-1643,27.8,2.15,13.1,
25.84553304,-80.17572322,05:13.1,10/4/20,7,2.117,105.21,-6.99304415,1.35,107,100.53,3.14,-1.5,30.3,0,2.72,2.72,91,30,497.9,16.1,-1.9,D,1080,7,7.183,2,2.06,165,94.8,-80.17565169,25.84552764,0,0,1,N,0.5901898,76,76,11,107,107,95.55032,0,9999.99,2.75,2.877,2,9,28.6,0,28.60000038,2.61,1508.55232,10/4/20,17:45:19,27.92,4.899,2.61,0.982,7.82,-49,-0.8,-1.4,-4076,27.8,2.15,13.3,
25.84553024,-80.17571239,05:14.1,10/4/20,7,2.128,106.23,-6.99304415,1.35,104.6,98.31,3.94,-0.87,30.2,0,2.73,2.73,91,30,497.9,16.1,-1.9,D,1081.1,7,6.082,2,2.03,165,92.72,-80.17565169,25.84552764,0,0,1,N,0.8405927,81,81,11,113,113,94.87395,0,9999.99,2.76,2.887,2,9,28.6,0,28.60000038,2.63,1508.57321,10/4/20,17:45:20,27.92,4.925,2.63,0.993,7.87,-52,-0.4,-3.5,-3416,27.8,2.15,13.2,
25.84552694,-80.17570204,05:15.1,10/4/20,7,2.024,108.48,-6.99304415,1.35,104.4,98.12,3.37,-0.05,30.2,0,2.71,2.71,91,30,497.9,16.1,-1.9,D,1081.1,7,5.04,2,2.06,165,89.11,-80.17565169,25.84552764,0,0,1,N,0.9419112,77,77,11,110,110,93.76971,0,9999.99,2.74,2.867,2,9,28.6,0,28.60000038,2.65,1508.59421,10/4/20,17:45:21,27.92,4.97,2.65,0.975,7.82,-48.9,-1.1,-4.4,-2657,27.8,2.15,13.3,
25.84552458,-80.1756917,05:16.1,10/4/20,7,1.952,107.57,-6.99304415,1.35,104.2,97.93,4.16,0.44,30.3,0,2.78,2.78,91,30,497.9,16.1,-1.9,D,1081.1,8,17.18,2,2.08,165,118.87,-80.17554136,25.84544999,0,0,1,N,2.799758,82,82,11,189,189,113.4784,0,9999.99,2.81,2.937,2,9,28.6,0,28.60000038,2.74,1508.68791,10/4/20,17:45:22,27.92,5.118,2.74,0.969,7.81,-48,-0.5,-5,-1092,27.8,2.15,13.1,
25.84552001,-80.17568088,05:17.1,10/4/20,7,2.171,107.28,-6.99304415,1.35,108,101.46,2.71,1.19,30.3,0,2.8,2.8,91,30,497.9,16.1,-1.9,D,1081.1,8,15.986,2,2.08,165,119.15,-80.17554136,25.84544999,0,0,1,N,2.333939,73,73,11,179,179,113.5485,0,9999.99,2.82,2.947,2,9,28.6,0,28.60000038,2.7,1508.64618,10/4/20,17:45:23,27.93,5.047,2.7,0.939,7.83,-49.3,-0.8,-2.5,-454,27.8,2.15,13.3,
25.84551819,-80.17567054,05:18.1,10/4/20,7,2.057,107.28,-6.99304415,1.35,109.8,103.13,4.3,-1.69,30.3,0,2.81,2.81,91,31,497.8,16.1,-1.9,D,1068.8,8,14.988,2,2.09,165,120.4,-80.17554136,25.84544999,0,0,1,N,2.1292,81,81,11,175,175,114.9389,0,9999.99,2.84,2.967,2,9,28.6,0,28.60000038,2.79,1508.74017,10/4/20,17:45:24,27.93,5.215,2.79,1.013,7.81,-48.3,-1.2,-3.1,-1683,27.9,2.15,13.3,
25.84551657,-80.1756606,05:19.1,10/4/20,7,1.955,106.53,-6.99304415,1.35,116.2,109.05,3.44,-0.74,30.3,0,2.81,2.81,91,31,497.8,16.1,-1.9,D,1068.8,8,14.043,2,2.08,165,121.82,-80.17554136,25.84544999,0,0,1,N,1.648559,78,78,11,176,176,116.1759,0,9999.99,2.84,2.967,2,9,28.6,0,28.60000038,2.82,1508.77177,10/4/20,17:45:25,27.94,5.269,2.82,0.99,7.86,-51.1,-2,-0.1,-1350,27.9,2.15,13.3,
25.84551119,-80.17565364,05:20.1,10/4/20,7,1.733,106.53,-6.99304415,1.35,116.7,109.51,3.65,1.6,30.2,0,2.8,2.81,91,31,497.8,16.1,-1.9,D,1068.8,8,13.137,2,2.03,165,121.2,-80.17554136,25.84544999,0,0,1,N,1.297629,79,79,11,157,157,116.9361,0,9999.99,2.84,2.967,2,9,28.6,0,28.60000038,2.83,1508.78223,10/4/20,17:45:26,27.95,5.285,2.83,0.98,7.85,-50.5,-0.8,-3.9,-2739,27.9,2.15,13.1,
25.8455063,-80.17564631,05:21.1,10/4/20,7,1.916,106.53,-6.99304415,1.35,120.8,113.3,5.11,-0.76,30.3,0,2.82,2.82,91,31,497.8,16.1,-1.9,D,1074.3,8,12.228,2,2.06,165,120.8,-80.17554136,25.84544999,0,0,1,N,1.401103,86,86,11,141,141,117.0534,0,9999.99,2.86,2.987,2,9,28.6,0,28.60000038,2.89,1508.84516,10/4/20,17:45:27,27.95,5.39,2.89,0.967,7.83,-49.6,-2.1,-3.7,-2833,27.8,2.15,13.3,
25.84550205,-80.17563528,05:22.1,10/4/20,7,2.064,112.23,-6.99304415,1.35,122.6,114.97,3.85,0.17,30.3,0.01,2.8,2.8,91,31,497.8,16.1,-1.9,D,1074.3,8,11.038,2,2.06,165,121.63,-80.17554136,25.84544999,0,0,1,N,1.251917,80,80,11,144,144,119.132,0,9999.99,2.83,2.957,2,9,28.6,0,28.60000038,2.79,1508.74087,10/4/20,17:45:28,27.96,5.213,2.79,1.003,7.84,-50.3,-0.9,-3.2,-3346,27.8,2.15,13.3,
25.84549744,-80.17562801,05:23.2,10/4/20,7,2.123,115.43,-6.99304415,1.35,125.3,117.47,3.32,1.01,30.3,0,2.8,2.8,91,31,497.8,16.1,-1.9,D,1074.3,8,10.15,2,2.05,165,121.32,-80.17554136,25.84544999,0,0,1,N,1.052958,77,77,11,135,135,119.4582,0,9999.99,2.83,2.957,2,9,28.6,0,28.60000038,2.91,1508.86622,10/4/20,17:45:29,27.95,5.415,2.91,1.029,7.79,-47,-0.4,1.6,-190,27.8,2.15,13.2,
25.84549227,-80.17561853,05:24.2,10/4/20,7,1.832,115.43,-6.99304415,1.35,125.3,117.47,3.66,0.01,30.3,0,2.78,2.78,91,31,497.8,16.1,-1.9,D,1074.3,8,9.041,2,2.02,165,121.33,-80.17554136,25.84544999,0,0,1,N,1.077631,79,79,11,139,139,120.3546,0,9999.99,2.82,2.947,2,9,28.6,0,28.60000038,2.89,1508.84468,10/4/20,17:45:30,27.96,5.388,2.89,0.992,7.82,-48.9,-0.1,-8.1,-3012,27.8,2.15,13.1,
25.84548787,-80.1756113,05:25.2,10/4/20,7,1.97,117.98,-6.99304415,1.35,126.1,118.21,3.55,-1.31,30.3,0,2.76,2.76,91,31,497.8,16.1,-1.9,D,1074.3,8,8.169,2,2.05,165,121.04,-80.17554136,25.84544999,0,0,1,N,1.014733,78,78,11,137,137,120.7973,0,9999.99,2.79,2.917,2,9,28.6,0,28.60000038,2.82,1508.77157,10/4/20,17:45:31,27.96,5.264,2.82,0.904,7.8,-47.9,-1.5,-1.1,-1468,27.8,2.14,13.2,
25.84548345,-80.17560132,05:26.2,10/4/20,7,2.138,116.34,-6.99304415,1.35,126.9,118.95,4.02,1.35,30.3,0,2.74,2.74,91,31,497.8,16.1,-1.9,D,1074.3,8,7.061,2,2.06,165,121.8,-80.17554136,25.84544999,0,0,1,N,0.7827684,80,80,11,137,137,122.4379,0,9999.99,2.77,2.897,2,9,28.6,0,28.60000038,2.79,1508.7401,10/4/20,17:45:32,27.95,5.217,2.79,1.02,7.82,-48.8,-1,-2.8,-1742,27.8,2.15,13.2,
25.84547782,-80.17559187,05:27.2,10/4/20,7,2.233,119.06,-6.99304415,1.35,129.3,121.18,3.34,0.35,30.3,0,2.74,2.74,91,31,497.8,16.1,-1.9,D,1074.3,8,5.926,2,2.06,165,121.47,-80.17554136,25.84544999,0,0,1,N,0.695689,77,77,11,135,135,123.0561,0,9999.99,2.77,2.897,2,9,28.6,0,28.60000038,2.79,1508.74021,10/4/20,17:45:33,27.94,5.217,2.79,0.924,7.81,-48.4,-2.1,-1.5,-3163,27.8,2.14,13.4,
25.84547129,-80.1755809,05:28.2,10/4/20,7,2.224,121.61,-6.99304415,1.35,131.6,123.31,3.42,-1.17,30.4,0,2.68,2.68,91,31,497.8,16.1,-1.9,D,1075.8,8,4.612,2,2.05,165,120.91,-80.17554136,25.84544999,0,0,1,N,0.5865036,78,78,11,129,129,123.8335,0,9999.99,2.72,2.847,2,9,28.6,0,28.60000038,2.83,1508.782,10/4/20,17:45:34,27.94,5.275,2.83,1.023,7.87,-51.7,-0.5,-5.6,-2211,27.8,2.15,13.2,
25.84546652,-80.1755734,05:29.3,10/4/20,7,1.746,123.06,-6.99304415,1.35,133.4,124.99,3.47,-2.91,30.3,0,2.67,2.67,91,31,497.8,16.1,-1.9,D,1075.8,9,10.726,2,2.07,165,99.87,-80.1754678,25.84544999,0,0,1,N,1.902179,76,76,11,27,27,99.63329,0,9999.99,2.7,2.827,2,9,28.6,0,28.60000038,2.88,1508.83428,10/4/20,17:45:35,27.94,5.376,2.88,0.96,7.81,-48.2,0.5,-9.2,-2468,27.8,2.14,13.2,
25.84546121,-80.17556465,05:30.3,10/4/20,7,1.971,125.67,-6.99304415,1.35,126.6,118.67,1.78,-2.07,30.3,0,2.65,2.65,91,31,497.8,16.1,-1.9,D,1075.8,9,9.772,2,2.02,165,97.33,-80.1754678,25.84544999,0,0,1,N,1.303546,72,72,11,41,41,97.16391,0,9999.99,2.67,2.797,2,9,28.6,0,28.60000038,2.89,1508.84455,10/4/20,17:45:36,27.95,5.384,2.89,0.965,7.84,-50.2,-2,-7.1,-1101,27.8,2.15,13.2,
25.84545631,-80.17555546,05:31.3,10/4/20,7,2.075,125.67,-6.99304415,1.35,119,111.64,4.03,-2.56,30.4,0,2.63,2.63,91,31,497.8,16.1,-1.9,D,1075.8,9,8.8,2,1.99,165,94.58,-80.1754678,25.84544999,0,0,1,N,0.7504436,75,75,11,49,49,94.5279,0,9999.99,2.65,2.777,2,9,28.6,0,28.60000038,2.87,1508.82365,10/4/20,17:45:37,27.95,5.344,2.87,0.943,7.85,-50.4,-1.9,-4.9,-1952,27.9,2.15,13.3,
25.84545227,-80.17554577,05:32.2,10/4/20,7,1.919,125.67,-6.99304415,1.35,116.1,108.96,3.29,-0.28,30.4,0.01,2.63,2.63,91,31,497.7,16.1,-1.9,D,1076.9,9,7.807,2,1.97,165,91.86,-80.1754678,25.84544999,0,0,1,N,0.28901,77,77,11,59,59,91.94106,0,9999.99,2.66,2.787,2,9,28.6,0,28.60000038,2.87,1508.82459,10/4/20,17:45:38,27.95,5.349,2.87,1.031,7.78,-46.7,-1.6,-4.5,-4095,27.9,2.15,13.2,
25.84544808,-80.17553757,05:33.3,10/4/20,7,2.147,123.08,-6.99304415,1.35,107.4,100.9,3.75,1.69,30.4,0,2.63,2.63,91,31,497.7,16.1,-1.9,D,1076.9,9,6.985,2,1.98,165,88.26,-80.1754678,25.84544999,0,0,1,N,0.1897337,79,79,11,78,78,88.64259,0,9999.99,2.66,2.787,2,9,28.6,0,28.60000038,2.87,1508.82466,10/4/20,17:45:39,27.95,5.35,2.87,0.981,7.83,-49.6,-2.8,-1.3,-2549,27.9,2.15,13.2,
25.84544567,-80.17552814,05:34.3,10/4/20,7,1.942,117.46,-6.99304415,1.35,102.2,96.07,4.2,0.77,30.3,0,2.64,2.64,91,31,497.7,16.1,-1.9,D,1076.9,9,6.057,2,1.99,165,85.46,-80.1754678,25.84544999,0,0,1,N,0.4623202,82,82,11,89,89,86.69294,0,9999.99,2.68,2.807,2,9,28.6,0,28.60000038,2.86,1508.81388,10/4/20,17:45:40,27.95,5.341,2.86,0.953,7.8,-47.6,-1.1,-4,-3552,27.9,2.15,13.3,
25.84544219,-80.17551934,05:35.3,10/4/20,7,1.967,111.21,-6.99304415,1.35,99.7,93.74,3.86,0.54,30.4,0,2.64,2.65,91,30,497.7,16.1,-1.9,D,1083.6,9,5.23,2,1.96,165,80.46,-80.1754678,25.84544999,0,0,1,N,0.8507758,77,77,11,84,84,83.93008,0,9999.99,2.67,2.797,2,9,28.6,0,28.60000038,2.87,1508.82413,10/4/20,17:45:41,27.95,5.356,2.87,0.919,7.81,-48.3,-2.8,-8.3,-2099,27.9,2.15,13.4,
25.84544152,-80.17550813,05:36.3,10/4/20,7,2.02,111.21,-6.99304415,1.35,99.9,93.93,3.27,-0.58,30.3,0,2.64,2.65,91,30,497.7,16.1,-1.9,D,1083.6,10,10.358,2,1.99,165,120.3,-80.17541877,25.84539452,0,0,1,N,3.820811,79,79,11,232,232,120.2909,0,9999.99,2.67,2.797,2,9,28.6,0,28.60000038,2.92,1508.87647,10/4/20,17:45:42,27.95,5.431,2.92,1.031,7.81,-48.1,-0.5,-2.5,-2894,27.9,2.15,13.2,
25.84543973,-80.17549731,05:37.3,10/4/20,7,2.134,110.2,-6.99304415,1.35,103.8,97.56,2.63,3.65,30.4,0,2.6,2.6,91,30,497.7,16.1,-1.9,D,1083.6,10,9.33,2,2,165,122.6,-80.17541877,25.84539452,0,0,1,N,3.091815,73,73,11,233,233,122.589,0,9999.99,2.62,2.747,2,9,28.6,0,28.60000038,2.85,1508.80294,10/4/20,17:45:43,27.95,5.313,2.85,0.921,7.84,-49.8,-0.6,-6.3,-1040,28,2.16,13.2,
25.84543855,-80.1754868,05:38.3,10/4/20,7,1.874,105.46,-6.99304415,1.34,107.7,101.18,3.62,-2.33,30.3,0,2.76,2.76,91,30,497.7,16.1,-1.9,D,1083.6,10,8.386,2,1.92,165,125.72,-80.17541877,25.84539452,0,0,1,N,2.3509,79,79,11,225,225,125.6679,0,9999.99,2.79,2.917,2,9,28.6,0,28.60000038,2.93,1508.88669,10/4/20,17:45:44,27.95,5.456,2.93,0.988,7.81,-48,-0.6,-5.4,-1724,28,2.16,13.1,
25.84543595,-80.17547775,05:39.3,10/4/20,7,1.705,105.46,-6.99304415,1.34,117.7,110.44,4.78,0.73,30.3,0,2.74,2.74,91,31,497.7,16.1,-1.9,D,1058.6,10,7.488,2,1.96,165,127.97,-80.17541877,25.84539452,0,0,1,N,1.813263,80,80,11,199,199,128.7299,0,9999.99,2.76,2.887,2,9,28.6,0,28.60000038,3.03,1508.9912,10/4/20,17:45:45,27.95,5.634,3.03,0.901,7.84,-49.8,-1.5,-2.7,-52,28,2.16,13.3,
25.8454338,-80.17546731,05:40.3,10/4/20,7,2.068,105.46,-6.99304415,1.34,126,118.12,4.54,-0.57,30.3,0.01,2.73,2.74,91,31,497.7,16.1,-1.9,D,1058.6,10,6.533,2,1.94,165,131.96,-80.17541877,25.84539452,0,0,1,N,1.1173,82,82,11,190,190,133.5469,0,9999.99,2.77,2.897,2,9,28.6,0,28.60000038,3.04,1509.00144,10/4/20,17:45:46,27.97,5.646,3.04,1.062,7.85,-50.3,0.2,-7.5,-1562,28,2.16,13.1,
25.8454306,-80.17545711,05:41.3,10/4/20,7,2.084,105.46,-6.99304415,1.34,130,121.83,4.81,-1.61,30.4,0.01,2.73,2.74,91,31,497.7,16.1,-1.9,D,1058.6,10,5.552,2,1.92,165,136.27,-80.17541877,25.84539452,0,0,1,N,0.5415106,86,86,11,190,190,137.6257,0,9999.99,2.77,2.897,2,9,28.6,0,28.60000038,3.03,1508.99234,10/4/20,17:45:47,27.97,5.635,3.03,0.977,7.82,-49,-0.9,-4.4,-1280,28,2.16,13.3,
25.84542799,-80.1754492,05:42.3,10/4/20,7,1.93,111.15,-6.99304415,1.34,134.7,126.2,4.13,-1.26,30.3,0.01,2.73,2.73,91,30,497.7,16.1,-1.8,D,1102.5,10,4.81,2,1.92,165,140.71,-80.17541877,25.84539452,0,0,1,N,9.56E-02,82,82,11,185,185,140.8137,0,9999.99,2.77,2.897,2,9,28.6,0,28.60000038,3,1508.96055,10/4/20,17:45:48,27.98,5.583,3,0.941,7.83,-49.5,-1.8,0.9,-537,28,2.16,13.3,
25.84542403,-80.17544016,05:43.3,10/4/20,7,1.863,120.92,-6.99304415,1.34,140.2,131.34,4.74,0.12,30.4,0,2.7,2.7,91,30,497.7,16.1,-1.8,D,1102.5,11,17.124,2,1.97,165,114.06,-80.17528391,25.84536124,0,0,1,N,2.646406,86,86,11,78,78,119.1895,0,9999.99,2.74,2.867,2,9,28.6,0,28.60000038,2.97,1508.9286,10/4/20,17:45:49,27.98,5.533,2.97,0.923,7.79,-46.9,-1.7,-4,0,28,2.15,13.2,
25.84541924,-80.17543474,05:44.3,10/4/20,7,1.795,124.27,-6.99304415,1.34,139.4,130.59,2.3,-3.22,30.4,0,2.65,2.65,91,30,497.7,16.1,-1.8,D,1102.5,11,16.415,2,1.99,165,113.14,-80.17528391,25.84536124,0,0,1,N,2.272793,71,71,11,77,77,117.9923,0,9999.99,2.67,2.797,2,9,28.6,0,28.60000038,2.88,1508.83437,10/4/20,17:45:50,27.97,5.365,2.88,0.945,7.81,-48.2,-2.4,-3.5,-3509,27.9,2.15,13,
25.84541401,-80.17542411,05:45.3,10/4/20,7,2.044,129.24,-6.99304415,1.34,135.1,126.57,3.28,1.46,30.4,0,2.55,2.55,91,30,497.7,16.1,-1.8,D,1102.5,11,15.208,2,1.98,165,112.7,-80.17528391,25.84536124,0,0,1,N,1.985278,77,77,11,91,91,117.692,0,9999.99,2.58,2.707,2,9,28.6,0,28.60000038,2.86,1508.81356,10/4/20,17:45:51,27.96,5.343,2.86,1.034,7.81,-48.1,-2.6,-4,-2046,27.9,2.15,13.2,
25.84540778,-80.17541629,05:46.4,10/4/20,7,2.053,131.9,-6.99304415,1.34,129.6,121.45,3.24,1.48,30.4,0,2.54,2.55,91,30,497.6,16.1,-1.9,D,1083.4,11,14.223,2,2,165,111.34,-80.17528391,25.84536124,0,0,1,N,1.51927,76,76,11,104,104,115.7621,0,9999.99,2.57,2.697,2,9,28.6,0,28.60000038,2.77,1508.71943,10/4/20,17:45:52,27.96,5.179,2.77,0.93,7.82,-49.1,-1.2,-6.7,-1013,27.9,2.15,13.3,
25.84540069,-80.17540926,05:47.4,10/4/20,7,2.134,129.31,-6.99304415,1.34,129.1,120.99,2.26,1.95,30.4,0,2.5,2.51,91,30,497.6,16.1,-1.9,D,1083.4,11,13.289,2,2.07,165,109.27,-80.17528391,25.84536124,0,0,1,N,0.9365124,71,71,11,91,91,112.0091,0,9999.99,2.52,2.647,2,9,28.6,0,28.60000038,2.77,1508.71993,10/4/20,17:45:54,27.94,5.174,2.77,1.136,7.86,-51.3,-2.1,-6.2,-1529,27.9,2.15,13.1,
25.84539718,-80.17540122,05:48.4,10/4/20,7,1.617,129.31,-6.99304415,1.34,125.5,117.65,4.22,-0.12,30.4,0,2.49,2.49,91,30,497.6,16.1,-1.9,D,1083.4,11,12.401,2,2.06,165,108.8,-80.17528391,25.84536124,0,0,1,N,0.7707446,84,84,11,99,99,110.8361,0,9999.99,2.53,2.657,2,9,28.6,0,28.60000038,2.77,1508.71993,10/4/20,17:45:54,27.94,5.174,2.77,1.136,7.86,-51.3,-2.1,-6.2,-1529,27.9,2.15,13.1,
25.8453937,-80.17539239,05:49.4,10/4/20,7,1.885,126.89,-6.99304415,1.34,123.6,115.89,3.84,0.33,30.4,0,2.46,2.47,91,30,497.6,16.1,-1.8,D,1103,11,11.44,2,2.06,165,108.39,-80.17528391,25.84536124,0,0,1,N,0.6311391,80,80,11,103,103,109.8443,0,9999.99,2.49,2.617,2,9,28.6,0,28.60000038,2.8,1508.7508,10/4/20,17:45:55,27.94,5.226,2.8,0.939,7.86,-51.1,-2.4,-2.1,-624,27.9,2.15,13.3,
25.8453873,-80.17538296,05:50.4,10/4/20,7,2.174,123.67,-6.99304415,1.34,121.3,113.77,2.75,0.11,30.4,0,2.41,2.41,91,30,497.6,16.1,-1.8,D,1103,11,10.327,2,2.06,165,106.29,-80.17528391,25.84536124,0,0,1,N,0.1883966,73,73,11,99,99,106.6826,0,9999.99,2.44,2.567,2,9,28.6,0,28.60000038,2.74,1508.6884,10/4/20,17:45:57,27.93,5.127,2.74,0.932,7.84,-50.2,-2.9,-3.4,-1815,27.9,2.15,13.4,
25.8453826,-80.17537355,05:51.4,10/4/20,7,2.043,120.96,-6.99304415,1.34,117.7,110.44,2.86,-0.81,30.4,0,2.41,2.41,91,30,497.6,16.1,-1.8,D,1103,11,9.28,2,2.06,165,104.83,-80.17528391,25.84536124,0,0,1,N,7.23E-02,78,78,11,106,106,104.816,0,9999.99,2.45,2.577,2,9,28.6,0,28.60000038,2.74,1508.6884,10/4/20,17:45:57,27.93,5.127,2.74,0.932,7.84,-50.2,-2.9,-3.4,-1815,27.9,2.15,13.4,
25.84537649,-80.17536257,05:52.4,10/4/20,7,2.058,118.82,-6.99304415,1.34,115.6,108.5,4.02,-1.29,30.4,0,2.44,2.44,91,30,497.6,16.1,-1.8,D,1103,11,8.052,2,2.11,165,102.15,-80.17528391,25.84536124,0,0,1,N,0.437285,81,81,11,102,102,102.2049,0,9999.99,2.46,2.587,2,9,28.6,0,28.60000038,2.69,1508.63595,10/4/20,17:45:59,27.93,5.043,2.69,1.003,7.82,-49.1,-0.5,-1.5,-1043,27.9,2.15,13.3,
25.84537117,-80.17535229,05:53.5,10/4/20,7,2.034,116.44,-6.99304415,1.34,115.2,108.13,3.39,-1.81,30.4,0,2.42,2.42,91,30,497.6,16.1,-1.8,D,1102.9,11,6.932,2,2.11,165,99.17,-80.17528391,25.84536124,0,0,1,N,0.7306349,77,77,11,95,95,100.1155,0,9999.99,2.45,2.577,2,9,28.6,0,28.60000038,2.69,1508.63595,10/4/20,17:45:59,27.93,5.043,2.69,1.003,7.82,-49.1,-0.5,-1.5,-1043,27.9,2.15,13.3,
25.84536756,-80.17534368,05:54.5,10/4/20,7,1.953,115.06,-6.99304415,1.34,113.6,106.65,3.19,-1.76,30.4,0,2.41,2.42,91,30,497.6,16.1,-1.8,D,1102.9,11,6.022,2,2.12,165,96.7,-80.17528391,25.84536124,0,0,1,N,0.895314,76,76,11,96,96,98.94743,0,9999.99,2.44,2.567,2,9,28.6,0,28.60000038,2.71,1508.65682,10/4/20,17:46:00,27.93,5.066,2.71,0.931,7.81,-48.3,-2.5,-1.7,-239,27.9,2.15,13.2,
25.84536353,-80.17533398,05:55.5,10/4/20,7,2.11,115.62,-6.99304415,1.34,110.5,103.78,4.03,-0.77,30.4,0,2.43,2.43,91,30,497.6,16.1,-1.8,D,1102.9,12,16.869,2,2.13,165,107.91,-80.17517358,25.84531687,0,0,1,N,1.825204,79,79,11,129,129,105.3925,0,9999.99,2.46,2.587,2,9,28.6,0,28.60000038,2.76,1508.70917,10/4/20,17:46:02,27.93,5.16,2.76,1.007,7.82,-48.6,-0.9,-8.5,-2232,27.9,2.15,13.1,
25.84536026,-80.17532406,05:56.5,10/4/20,7,2,112.38,-6.99304415,1.34,110.1,103.41,3.56,2.55,30.4,0,2.44,2.45,91,30,497.5,16.1,-1.8,D,1100.5,12,15.813,2,2.06,165,107.76,-80.17517358,25.84531687,0,0,1,N,1.754399,78,78,11,133,133,105.0208,0,9999.99,2.47,2.597,2,9,28.6,0,28.60000038,2.76,1508.70917,10/4/20,17:46:02,27.93,5.16,2.76,1.007,7.82,-48.6,-0.9,-8.5,-2232,27.9,2.15,13.1,
25.8453577,-80.17531386,05:57.5,10/4/20,7,1.966,108.85,-6.99304415,1.34,111.8,104.98,2.52,2,30.5,0,2.45,2.45,91,30,497.5,16.1,-1.8,D,1100.5,12,14.754,2,2.1,165,107.92,-80.17517358,25.84531687,0,0,1,N,1.593519,72,72,11,127,127,105.1031,0,9999.99,2.48,2.607,2,9,28.6,0,28.60000038,2.77,1508.71962,10/4/20,17:46:03,27.94,5.172,2.77,0.961,7.84,-50.2,-1.5,-3.3,-2953,27.9,2.15,13.2,
25.84535536,-80.1753038,05:58.5,10/4/20,7,2.033,107.59,-6.99304415,1.34,111.1,104.33,2.89,-2.12,30.5,0,2.42,2.42,91,30,497.5,16.1,-1.8,D,1100.5,12,13.717,2,2.12,165,108.18,-80.17517358,25.84531687,0,0,1,N,1.419868,74,74,11,131,131,105.3474,0,9999.99,2.45,2.577,2,9,28.6,0,28.60000038,2.95,1508.90741,10/4/20,17:46:05,27.95,5.497,2.95,0.938,7.79,-46.9,-2.5,-4.8,-2387,27.8,2.15,13.3,
25.84535029,-80.17529233,05:59.5,10/4/20,7,2.119,111.74,-6.99304415,1.34,109.1,102.48,3.39,1.23,30.4,0,2.45,2.45,91,30,497.5,16.1,-1.8,D,1100.5,12,12.451,2,2.12,165,107.36,-80.17517358,25.84531687,0,0,1,N,1.470799,77,77,11,134,134,104.2431,0,9999.99,2.47,2.597,2,9,28.6,0,28.60000038,2.95,1508.90741,10/4/20,17:46:05,27.95,5.497,2.95,0.938,7.79,-46.9,-2.5,-4.8,-2387,27.8,2.15,13.3,
25.84534664,-80.17528181,06:00.5,10/4/20,8,2.052,114.28,-6.99304415,1.09,109.5,102.85,4.41,0.93,30.4,0,2.45,2.45,91,30,497.5,16.1,-1.8,D,1100.4,12,11.326,2,2.13,165,106.99,-80.17517358,25.84531687,0,0,1,N,1.413221,81,81,11,130,130,104.06,0,9999.99,2.47,2.597,2,9,28.6,0,28.60000038,2.97,1508.92837,10/4/20,17:46:06,27.95,5.521,2.97,0.951,7.82,-48.7,-2.6,-0.4,310,27.8,2.14,13.1,
25.84534452,-80.17527031,06:01.5,10/4/20,8,2.046,110.39,-6.99304415,1.09,111.3,104.52,3.33,-3.48,30.4,0,2.43,2.44,91,30,497.5,16.1,-1.8,D,1100.4,12,10.157,2,2.13,165,107.62,-80.17517358,25.84531687,0,0,1,N,1.152914,77,77,11,132,132,105.8763,0,9999.99,2.47,2.597,2,9,28.6,0,28.60000038,3.04,1509.00166,10/4/20,17:46:08,27.96,5.644,3.04,0.969,7.8,-47.7,-2.6,-9.5,-1182,27.8,2.14,13.1,
25.84534176,-80.1752609,06:02.5,10/4/20,8,2.013,110.39,-6.99304415,1.09,111.7,104.89,2.07,-0.7,30.4,0,2.44,2.44,91,30,497.5,16.1,-1.8,D,1100.4,12,9.166,2,2.08,165,107.58,-80.17517358,25.84531687,0,0,1,N,1.048691,69,69,11,134,134,106.6096,0,9999.99,2.47,2.597,2,9,28.6,0,28.60000038,3.04,1509.00166,10/4/20,17:46:08,27.96,5.644,3.04,0.969,7.8,-47.7,-2.6,-9.5,-1182,27.8,2.14,13.1,
25.84533976,-80.17525169,06:03.5,10/4/20,8,1.802,110.39,-6.99304415,1.09,109.6,102.94,3.82,-0.81,30.4,0,2.43,2.43,91,30,497.5,16.1,-1.8,D,1100.4,12,8.221,2,2.09,165,108.03,-80.17517358,25.84531687,0,0,1,N,0.8816362,80,80,11,146,146,107.789,0,9999.99,2.46,2.587,2,9,28.6,0,28.60000038,3.12,1509.08515,10/4/20,17:46:09,27.96,5.793,3.12,0.949,7.79,-47.1,-2.4,-2.8,-1135,27.8,2.14,13.3,
25.84533598,-80.17524067,06:04.5,10/4/20,8,2.158,110.87,-6.99304415,1.09,110.9,104.15,4.01,-0.99,30.4,0,2.45,2.45,91,31,497.5,16.1,-1.9,D,1071.4,12,7.043,2,2.12,165,107.56,-80.17517358,25.84531687,0,0,1,N,0.8098471,77,77,11,140,140,108.2971,0,9999.99,2.47,2.597,2,9,28.6,0,28.60000038,3.11,1509.07469,10/4/20,17:46:11,27.97,5.777,3.11,0.999,7.84,-49.9,-1.2,-8,250,27.7,2.14,13.2,
25.84533202,-80.17522997,06:05.5,10/4/20,8,2.099,106.36,-6.99304415,1.09,114.7,107.66,3.38,-2.96,30.4,0,2.44,2.44,91,31,497.5,16.1,-1.9,D,1071.4,12,5.89,2,2.1,165,106.62,-80.17517358,25.84531687,0,0,1,N,0.765226,77,77,11,131,131,108.6137,0,9999.99,2.47,2.597,2,9,28.6,0,28.60000038,3.11,1509.07469,10/4/20,17:46:11,27.97,5.777,3.11,0.999,7.84,-49.9,-1.2,-8,250,27.7,2.14,13.2,
25.84532876,-80.17521872,06:06.5,10/4/20,9,2.122,107.96,-6.99304415,1.09,115.8,108.68,4.31,-0.28,30.5,0,2.43,2.43,91,31,497.5,16.1,-1.9,D,1071.4,13,14.034,2,2.09,165,110.97,-80.17508777,25.84528359,0,0,1,N,0.573068,83,83,11,134,134,110.3633,0,9999.99,2.46,2.587,2,9,28.6,0,28.60000038,3.11,1509.07452,10/4/20,17:46:12,27.97,5.778,3.11,0.951,7.78,-46.5,-2.1,-2.9,-2803,27.7,2.13,13.3,
25.84532509,-80.17520795,06:07.5,10/4/20,10,2.147,110.65,-6.99304415,1.09,118.5,111.18,2.79,-2.21,30.4,0,2.43,2.43,91,31,497.5,16.1,-1.9,D,1075.7,13,12.882,2,2.1,164,110.99,-80.17508777,25.84528359,0,0,1,N,0.5172352,74,74,11,124,124,110.4092,0,9999.99,2.45,2.577,2,9,28.6,0,28.60000038,3.12,1509.08517,10/4/20,17:46:13,27.97,5.79,3.12,0.958,7.82,-48.9,-4,-8.5,864,27.7,2.13,13.3,
