0,Latitude,Longitude,Time,Date,Number of Sats,GPS Speed (Kn),GPS True Heading,GPS Magnetic Variation,HDOP,C Magnetic Heading,C True Heading,Pitch Angle,Roll Angle,C Inside Temp (c),DFS Depth (m),DTB Height (m),Total Water Column (m),Batt Percent,Power Watts,Watt-Hours,Batt Volts,Batt Ampers,Batt State,Time to Empty,Current Step,Dist To Next (m),Next Speed (kn),Vehicle Speed (kn),Motor Speed CMD,Next Heading,Next Long,Next Lat,Next Depth (m),Depth Goal (m),Vehicle State,Error State,Distance to Track (m),Fin Pitch R,Fin Pitch L,Pitch Goal,Fin Yaw T,Fin Yaw B,Yaw Goal,Fin Roll,DVL-Depth (m),DVL -Altitude (m),DVL -Water Column (m),DVL-FixType,DVL-FixQuality,DVL-Temperature,Conductivity (mmhos/cm),Temperature (c),Salinity (ppt),Sound Speed (m/s),Date m/d/y   ,Time hh:mm:ss,Temp C,SpCond mS/cm,Sal ppt,Depth feet,pH,pH mV,Turbid+ NTU,Chl ug/L,BGA-PC cells/mL,ODOsat %,ODO mg/L,Battery volts,
1,33.4450043333333,-118.484528833333,16:27:38.52,7/13/2016,8,0.111,193.33,12.0453350093692,1.12,230.4,242.05,3.23,-4.22,30,.01,7.97,7.98,96,21,581.3,16.4,-1.3,D,1831.1,0,27.614,2,2.12,128,129.18,-118.48429814,33.44484744,0,0,1,N,27.4826,76,76,11,5,5,213.3508,0,9999.99,8.00,8.127,2,9,26.3,0,26.2999992370605,33.81,1536.1265,07/13/16,16:24:39,22.72,51.40,33.81,-0.176,8.39,-81.5,2.1,63.3,115068,118.4,8.40,12.5,
2,33.4450046666667,-118.484529166667,16:27:39.52,7/13/2016,8,0.083,193.33,12.0453350093692,1.12,230.9,242.58,2.86,-5.07,30,.00,7.95,7.96,96,21,581.3,16.4,-1.3,D,1831.1,0,27.614,2,2.12,128,129.18,-118.48429814,33.44484744,0,0,1,N,27.4826,74,74,11,5,5,213.3508,0,9999.99,7.98,8.107,2,9,26.3,0,26.2999992370605,33.81,1536.1265,07/13/16,16:24:39,22.72,51.40,33.81,-0.176,8.39,-81.5,2.1,63.3,115068,118.4,8.40,12.5,
3,33.4450053116454,-118.484530075349,16:27:40.52,7/13/2016,8,0.104,193.33,12.0453350093692,1.13,233.6,245.41,4.63,0.05,30,.01,7.96,7.98,96,21,581.3,16.4,-1.3,D,1831.1,0,27.772,2,0.06,174,129.21,-118.48429814,33.44484744,0,0,1,N,27.4826,84,84,11,5,5,129.2121,0,9999.99,8.00,8.127,2,9,26.3,0,26.2999992370605,33.82,1536.1368,07/13/16,16:24:41,22.72,51.42,33.82,-0.163,8.39,-81.4,1.2,-2.0,-1920,118.7,8.42,12.3,
4,33.4450045556595,-118.484533140869,16:27:41.52,7/13/2016,8,0.831,193.33,12.0453350093692,1.13,232,243.73,3.06,-2.93,30,.02,7.95,7.97,96,40,581.3,16.4,-2.4,D,981.6,0,27.940,2,0.23,174,128.7,-118.48429814,33.44484744,0,0,1,N,27.4826,75,75,11,5,5,128.7332,0,9999.99,7.98,8.107,2,9,26.3,0,26.2999992370605,33.82,1536.1368,07/13/16,16:24:41,22.72,51.42,33.82,-0.163,8.39,-81.4,1.2,-2.0,-1920,118.7,8.42,12.3,
5,33.4450037090537,-118.484538050488,16:27:42.52,7/13/2016,8,1.016,193.33,12.0453350093692,1.13,228.4,239.96,1.34,2.71,30,.01,8.00,8.01,96,40,581.3,16.4,-2.4,D,981.6,0,28.239,2,0.54,174,127.98,-118.48429814,33.44484744,0,0,1,N,27.4826,65,65,11,5,5,128.0338,0,9999.99,8.01,8.137,2,9,26.3,0,26.2999992370605,33.81,1536.12749,07/13/16,16:24:43,22.73,51.40,33.81,-0.165,8.39,-81.5,1.5,-1.3,-3608,118.9,8.43,12.3,
6,33.4450020711856,-118.48454441382,16:27:43.53,7/13/2016,8,1.347,217.04,12.0453350093692,1.13,221.2,232.39,0.5,3.2,30.1,.00,8.01,8.01,96,40,581.3,16.4,-2.4,D,981.6,0,28.597,2,0.84,174,126.96,-118.48429814,33.44484744,0,0,1,N,27.4826,60,60,11,5,5,127.0648,0,9999.99,8.01,8.137,2,9,26.3,0,26.2999992370605,33.81,1536.12749,07/13/16,16:24:43,22.73,51.40,33.81,-0.165,8.39,-81.5,1.5,-1.3,-3608,118.9,8.43,12.3,
7,33.4450013640659,-118.484552482355,16:27:44.53,7/13/2016,8,1.496,233.23,12.0453350093692,1.13,221.1,232.28,-0.1,5.82,30.1,.01,8.05,8.05,96,40,581.3,16.4,-2.4,D,981.6,0,29.152,2,1.08,174,125.95,-118.48429814,33.44484744,0,0,1,N,27.4826,56,56,11,5,5,126.0851,0,9999.99,8.05,8.177,2,9,26.2,0,26.2999992370605,33.82,1536.1367,07/13/16,16:24:45,22.70,51.41,33.82,-0.098,8.39,-81.3,1.6,-2.0,-1167,119.2,8.46,12.3,
8,33.444997778303,-118.484558427863,16:27:45.55,7/13/2016,8,1.575,234.23,12.0453350093692,1.13,216.2,227.12,0.91,3.86,30.1,.00,8.02,8.02,96,42,581.3,16.4,-2.5,D,938.5,0,29.372,2,1.26,174,124.69,-118.48429814,33.44484744,0,0,1,N,27.4826,62,62,11,5,5,124.8269,0,9999.99,8.03,8.157,2,9,26.2,0,26.2999992370605,33.82,1536.1367,07/13/16,16:24:45,22.70,51.41,33.82,-0.098,8.39,-81.3,1.6,-2.0,-1167,119.2,8.46,12.3,
9,33.4449929409443,-118.484565129614,16:27:46.55,7/13/2016,8,1.595,231.33,12.0453350093692,1.13,208,218.48,0.77,5.26,30.1,.00,7.99,7.99,96,42,581.3,16.4,-2.5,D,938.5,0,29.588,2,1.4,174,123.15,-118.48429814,33.44484744,0,0,1,N,27.4826,63,63,11,5,5,123.3013,0,9999.99,8.00,8.127,2,9,26.2,0,26.2000007629395,33.85,1535.93697,07/13/16,16:24:47,22.69,51.45,33.85,-0.075,8.39,-81.6,1.9,-0.9,-2813,119.4,8.47,12.3,
10,33.4449873708034,-118.48457100835,16:27:47.56,7/13/2016,8,1.639,226.7,12.0453350093692,1.13,206.4,216.8,1.03,3.48,30.1,.00,8.04,8.04,96,42,581.3,16.4,-2.5,D,938.5,0,29.717,2,1.52,174,121.57,-118.48429814,33.44484744,0,0,1,N,27.4826,63,63,11,5,5,121.7624,0,9999.99,8.05,8.177,2,9,26.1,0,26.2000007629395,33.85,1535.93697,07/13/16,16:24:47,22.69,51.45,33.85,-0.075,8.39,-81.6,1.9,-0.9,-2813,119.4,8.47,12.3,
11,33.4449820372361,-118.484577019563,16:27:48.58,7/13/2016,7,1.614,218.91,12.0453350093692,1.22,199.2,209.22,1.11,5.22,30.1,.01,7.79,7.79,96,42,581.3,16.4,-2.5,D,942.5,0,29.892,2,1.59,174,120.05,-118.48429814,33.44484744,0,0,1,N,27.4826,64,64,11,5,5,120.2411,0,9999.99,7.80,7.927,2,9,26.1,0,26.1000003814697,33.9,1535.75845,07/13/16,16:24:49,22.76,51.52,33.90,-0.109,8.40,-82.0,0.9,0.0,-553,119.7,8.48,12.3,
12,33.4449758330604,-118.484581069014,16:27:49.59,7/13/2016,8,1.504,216.5,12.0453350093692,1.13,191.6,201.26,1.3,3.45,30.1,.00,7.64,7.64,96,42,581.3,16.4,-2.5,D,942.5,0,29.882,2,1.61,174,118.54,-118.48429814,33.44484744,0,0,1,N,27.4826,66,66,11,5,5,118.71,0,9999.99,7.65,7.777,2,9,26.1,0,26.1000003814697,33.9,1535.75845,07/13/16,16:24:49,22.76,51.52,33.90,-0.109,8.40,-82.0,0.9,0.0,-553,119.7,8.48,12.3,
13,33.4449684760686,-118.484584076541,16:27:50.61,7/13/2016,8,1.707,204.54,12.0453350093692,1.22,186.2,195.63,0.91,2.71,30.1,.00,7.53,7.54,96,42,581.2,16.4,-2.5,D,942.1,0,29.749,2,1.66,174,116.9,-118.48429814,33.44484744,0,0,1,N,0.3146755,62,62,11,5,5,115.42,0,9999.99,7.54,7.667,2,9,26,0,26.1000003814697,33.87,1535.72598,07/13/16,16:24:51,22.84,51.48,33.87,-0.117,8.40,-81.9,1.3,-4.0,-2201,119.9,8.48,12.5,
14,33.444961422973,-118.484587406474,16:27:51.61,7/13/2016,7,1.632,202.68,12.0453350093692,1.22,178,187.14,0.86,10.2,30.1,.00,7.48,7.48,96,42,581.2,16.4,-2.5,D,942.1,0,29.681,2,1.68,174,115.28,-118.48429814,33.44484744,0,0,1,N,1.142498,62,62,11,5,5,109.5432,0,9999.99,7.48,7.607,2,9,26,0,26,33.82,1535.43964,07/13/16,16:24:52,22.86,51.41,33.82,-0.128,8.39,-81.6,1.0,-4.6,-1146,120.0,8.49,12.3,
15,33.4449566963651,-118.484590729049,16:27:52.63,7/13/2016,8,1.472,200.69,12.0453350093692,1.13,171.6,180.58,0.67,8.5,30.1,.00,7.44,7.44,96,42,581.2,16.4,-2.5,D,942.1,0,29.742,2,1.61,175,114.11,-118.48429814,33.44484744,0,0,1,N,1.770648,63,63,11,5,5,105.2163,0,9999.99,7.45,7.577,2,9,26,0,26,33.79,1535.40749,07/13/16,16:24:53,22.84,51.38,33.79,-0.135,8.40,-81.7,1.5,-4.4,-4220,120.1,8.50,12.3,
16,33.4449490137739,-118.48459336351,16:27:53.64,7/13/2016,8,1.827,193.19,12.0453350093692,1.13,166.1,175,0.7,5.22,30.1,.01,7.54,7.54,96,42,581.2,16.4,-2.5,D,942.1,0,29.629,2,1.64,175,112.41,-118.48429814,33.44484744,0,0,1,N,2.643407,63,63,11,5,5,99.37537,0,9999.99,7.55,7.677,2,9,26,0,26,33.8,1535.41826,07/13/16,16:24:54,22.82,51.39,33.80,-0.102,8.39,-81.3,1.4,-6.5,-2795,120.2,8.51,12.3,
17,33.4449409810448,-118.484595431196,16:27:54.64,7/13/2016,8,1.958,182.68,12.0453350093692,1.13,161.1,169.97,1.31,6.29,30.1,.01,7.70,7.71,96,44,581.2,16.4,-2.6,D,903.7,0,29.480,2,1.77,176,110.66,-118.48429814,33.44484744,0,0,1,N,3.511822,65,65,11,5,5,93.97639,0,9999.99,7.71,7.837,2,9,25.9,0,26,33.76,1535.37535,07/13/16,16:24:55,22.79,51.34,33.76,-0.103,8.39,-81.5,0.6,-2.0,-1977,120.3,8.52,12.3,
18,33.4449334007963,-118.484594248239,16:27:55.64,7/13/2016,8,1.609,178.74,12.0453350093692,1.13,154.1,163,1.41,4.05,30.1,.01,7.60,7.61,96,44,581.2,16.4,-2.6,D,903.7,0,29.089,2,1.75,176,109.18,-118.48429814,33.44484744,0,0,1,N,4.218173,67,67,11,5,5,89.86478,0,9999.99,7.62,7.747,2,9,25.9,0,25.8999996185303,33.67,1535.04512,07/13/16,16:24:56,22.74,51.21,33.67,-0.127,8.39,-81.4,1.3,-6.2,-1855,120.3,8.54,12.3,
19,33.4449260789683,-118.484590942232,16:27:56.64,7/13/2016,8,1.76,169.36,12.0453350093692,1.13,146.8,155.82,1.2,4.97,30.1,.01,7.38,7.38,96,44,581.2,16.4,-2.6,D,903.7,0,28.540,2,1.73,176,107.84,-118.48429814,33.44484744,0,0,1,N,4.817072,62,62,11,5,5,86.62479,0,9999.99,7.38,7.504951,2,9,25.9,0,25.8999996185303,33.71,1535.08805,07/13/16,16:24:57,22.63,51.25,33.71,-0.123,8.39,-81.0,1.9,0.6,-338,120.3,8.55,12.3,
20,33.4449189033906,-118.484586865135,16:27:57.66,7/13/2016,8,1.94,163.26,12.0453350093692,1.13,139.6,148.84,1.14,6.22,30.1,.00,7.54,7.54,96,43,581.2,16.4,-2.6,D,907,0,27.943,2,1.79,176,106.52,-118.48429814,33.44484744,0,0,1,N,5.34719,64,64,11,5,5,83.91701,0,9999.99,7.55,7.677,2,9,25.9,0,25.8999996185303,33.79,1535.17366,07/13/16,16:24:58,22.54,51.37,33.79,-0.110,8.39,-81.3,1.1,-4.7,-4352,120.3,8.56,12.3,
21,33.4449129894671,-118.484582436008,16:27:58.67,7/13/2016,8,1.821,156.38,12.0453350093692,1.13,131.4,141,2.12,6.59,30.1,.01,7.46,7.47,96,43,581.2,16.4,-2.6,D,907,0,27.367,2,1.84,177,105.45,-118.48429814,33.44484744,0,0,1,N,5.750791,70,70,11,5,5,81.9677,0,9999.99,7.48,7.607,2,9,25.8,0,25.7999992370605,34.01,1535.17567,07/13/16,16:24:59,22.55,51.67,34.01,-0.098,8.40,-81.6,0.2,-3.4,-1241,120.3,8.55,12.3,
22,33.4449082272976,-118.484577157346,16:27:59.67,7/13/2016,8,1.558,152.11,12.0453350093692,1.13,123.1,133.16,1.23,9.1,30.1,.01,7.16,7.17,96,43,581.2,16.4,-2.6,D,907,0,26.756,2,1.74,177,104.63,-118.48429814,33.44484744,0,0,1,N,6.016212,64,64,11,5,5,80.73424,0,9999.99,7.18,7.302374,2,9,25.8,0,25.7999992370605,33.96,1535.12206,07/13/16,16:25:00,22.67,51.59,33.96,-0.143,8.40,-81.9,1.0,-3.5,-31,120.3,8.54,12.3,
23,33.4449046999527,-118.484571798564,16:28:00.67,7/13/2016,8,1.491,143.65,12.0453350093692,1.13,111.1,121.95,2.75,5.16,30.2,.00,7.15,7.15,96,43,581.2,16.4,-2.6,D,907,0,26.177,2,1.64,177,104.08,-118.48429814,33.44484744,0,0,1,N,6.151555,73,73,11,5,5,80.11921,0,9999.99,7.17,7.297,2,9,25.8,0,25.7999992370605,33.8,1534.94987,07/13/16,16:25:01,22.75,51.39,33.80,-0.095,8.40,-81.9,1.4,0.5,-1996,120.3,8.53,12.3,
24,33.4448998443729,-118.484563771723,16:28:01.67,7/13/2016,8,1.916,134.75,12.0453350093692,1.13,104.7,116.02,2.07,7.47,30.1,.01,7.14,7.15,96,44,581.2,16.4,-2.6,D,897.5,0,25.326,2,1.73,177,103.3,-118.48429814,33.44484744,0,0,1,N,6.292473,69,69,11,5,5,79.491,0,9999.99,7.16,7.287,2,9,25.8,0,25.7999992370605,33.88,1535.03576,07/13/16,16:25:02,22.74,51.50,33.88,-0.146,8.40,-81.8,1.4,-2.8,-2864,120.5,8.54,12.3,
25,33.4448958661521,-118.484554562891,16:28:02.67,7/13/2016,8,1.91,127.77,12.0453350093692,1.13,96.3,108.25,3.37,8.2,30.1,.00,6.85,6.85,96,44,581.2,16.4,-2.6,D,897.5,0,24.394,2,1.86,178,102.75,-118.48429814,33.44484744,0,0,1,N,6.300525,75,75,11,6,6,79.45572,0,9999.99,6.87,6.998323,2,9,25.8,0,25.7999992370605,33.9,1535.05714,07/13/16,16:25:03,22.77,51.52,33.90,-0.152,8.40,-82.1,1.2,-3.3,-3018,120.6,8.54,12.3,
26,33.4448938353299,-118.484545423623,16:28:03.67,7/13/2016,8,1.895,120.25,12.0453350093692,1.13,85.2,97.97,3.16,5.58,30.1,.01,6.56,6.57,96,44,581.2,16.4,-2.6,D,897.5,0,23.517,2,1.8,178,102.67,-118.48429814,33.44484744,0,0,1,N,6.126961,76,76,11,56,56,80.23174,0,9999.99,6.59,6.717,2,9,25.7,0,25.7000007629395,33.86,1534.77941,07/13/16,16:25:04,22.82,51.47,33.86,-0.128,8.40,-82.0,1.6,-3.1,-1643,120.7,8.54,12.3,
27,33.4448935078347,-118.484535090067,16:28:04.67,7/13/2016,8,1.762,108.9,12.0453350093692,1.13,81.6,94.62,1.67,13,30.1,.00,6.29,6.29,96,45,581.1,16.4,-2.7,D,868.2,0,22.574,2,1.81,178,103.12,-118.48429814,33.44484744,0,0,1,N,5.725947,67,67,11,77,77,82.08551,0,9999.99,6.31,6.434985,2,9,25.7,0,25.7000007629395,33.8,1534.71501,07/13/16,16:25:05,22.85,51.39,33.80,-0.138,8.40,-82.0,0.8,-4.1,-2269,120.9,8.56,12.4,
28,33.4448927496483,-118.484525624717,16:28:05.67,7/13/2016,8,1.758,99.39,12.0453350093692,1.13,74.7,88.17,1.31,13.9,30.2,.00,6.44,6.44,96,45,581.1,16.4,-2.7,D,868.2,0,21.700,2,1.79,178,103.43,-118.48429814,33.44484744,0,0,1,N,5.405026,64,64,11,106,106,83.63435,0,9999.99,6.44,6.5716,2,9,25.7,0,25.7000007629395,33.78,1534.69307,07/13/16,16:25:06,22.82,51.36,33.78,-0.091,8.41,-82.3,1.2,-6.3,1099,120.9,8.57,12.3,
29,33.4448923762234,-118.484515573743,16:28:06.70,7/13/2016,8,1.919,91.44,12.0453350093692,1.13,72.3,85.91,-0.47,4.66,30.2,.00,6.57,6.57,96,45,581.1,16.4,-2.7,D,868.2,0,20.784,2,1.8,178,103.91,-118.48429814,33.44484744,0,0,1,N,5.000188,54,54,11,124,124,85.67199,0,9999.99,6.57,6.692494,2,9,25.7,0,25.7000007629395,33.77,1534.68224,07/13/16,16:25:07,22.77,51.34,33.77,-0.123,8.40,-81.9,0.6,2.8,16,121.1,8.59,12.3,
30,33.4448926682015,-118.484505285174,16:28:07.72,7/13/2016,8,1.843,89.43,12.0453350093692,1.13,73.1,86.67,-0.08,13.2,30.2,.00,6.50,6.51,96,45,581.1,16.4,-2.7,D,868.2,0,19.867,2,1.77,178,104.66,-118.48429814,33.44484744,0,0,1,N,4.525174,57,57,11,133,133,88.18418,0,9999.99,6.51,6.634482,2,9,25.7,0,25.7000007629395,33.73,1534.63932,07/13/16,16:25:08,22.72,51.30,33.73,-0.021,8.40,-82.0,0.9,-1.0,-977,121.2,8.60,12.3,
31,33.4448925428993,-118.484493851654,16:28:08.72,7/13/2016,8,1.977,91.96,12.0453350093692,1.13,78.9,92.1,1.38,12.3,30.2,.00,6.68,6.68,96,44,581.1,16.4,-2.6,D,898.1,0,18.839,2,1.83,178,105.44,-118.48429814,33.44484744,0,0,1,N,4.037612,65,65,11,123,123,90.89884,0,9999.99,6.69,6.817,2,9,25.7,0,25.7000007629395,33.69,1534.59635,07/13/16,16:25:09,22.64,51.24,33.69,-0.066,8.40,-81.6,0.5,-3.2,-3063,121.2,8.62,12.3,
32,33.4448924244158,-118.484483298984,16:28:09.72,7/13/2016,8,1.969,88.85,12.0453350093692,1.13,79.8,92.94,-0.25,3.86,30.1,.00,6.51,6.51,96,44,581.1,16.4,-2.6,D,898.1,0,17.893,2,1.87,179,106.23,-118.48429814,33.44484744,0,0,1,N,3.598137,55,55,11,129,129,93.46206,0,44.72,6.51,51.357,2,9,25.7,0,25.7000007629395,33.74,1534.65023,07/13/16,16:25:10,22.56,51.30,33.74,-0.103,8.39,-81.5,1.2,-3.0,-380,121.2,8.63,12.5,
33,33.4448940384358,-118.48447460846,16:28:10.72,7/13/2016,8,1.743,89,12.0453350093692,1.13,83.2,96.11,0.64,14,30.2,.00,6.23,6.23,96,44,581.1,16.4,-2.6,D,898.1,0,17.174,2,1.87,179,107.56,-118.48429814,33.44484744,0,0,1,N,3.055768,61,61,11,131,131,96.77341,0,9999.99,6.24,6.362797,2,9,25.6,0,25.7000007629395,33.82,1534.7362,07/13/16,16:25:11,22.50,51.41,33.82,-0.021,8.39,-81.5,0.9,-2.0,-1844,121.3,8.64,12.3,
34,33.4448941639589,-118.484464199624,16:28:11.72,7/13/2016,8,1.84,90.06,12.0453350093692,1.13,83.9,96.76,0.2,6.25,30.1,.00,6.41,6.41,96,44,581.1,16.4,-2.6,D,898.1,0,16.260,2,1.84,179,108.63,-118.48429814,33.44484744,0,0,1,N,2.600208,58,58,11,139,139,99.67314,0,9999.99,6.41,6.537,2,9,25.6,0,25.6000003814697,33.85,1534.53246,07/13/16,16:25:12,22.50,51.45,33.85,-0.086,8.39,-81.5,1.0,1.3,-3695,121.3,8.64,12.3,
35,33.4448930617779,-118.484454034706,16:28:12.72,7/13/2016,8,1.989,94.77,12.0453350093692,1.13,90.9,103.26,0.95,11.8,30.1,.00,6.18,6.18,96,44,581.1,16.4,-2.7,D,893.7,0,15.328,2,1.86,179,109.33,-118.48429814,33.44484744,0,0,1,N,2.259065,64,64,11,128,128,101.91,0,9999.99,6.18,6.310419,2,9,25.6,0,25.6000003814697,33.86,1534.54326,07/13/16,16:25:13,22.52,51.47,33.86,-0.028,8.39,-81.5,0.6,-2.4,-741,121.2,8.63,12.3,
36,33.4448919716911,-118.484444412436,16:28:13.72,7/13/2016,8,1.828,97.7,12.0453350093692,1.13,93.1,105.29,0.15,8.1,30.2,.00,6.28,6.29,96,44,581.1,16.4,-2.7,D,893.7,0,14.447,2,1.88,179,110.04,-118.48429814,33.44484744,0,0,1,N,1.940382,59,59,11,122,122,104.045,0,9999.99,6.29,6.417,2,9,25.6,0,25.6000003814697,33.88,1534.56474,07/13/16,16:25:14,22.56,51.49,33.88,-0.082,8.40,-81.8,0.9,-1.2,-2592,121.3,8.62,12.3,
37,33.4448906355397,-118.484435250432,16:28:14.72,7/13/2016,8,1.682,100.13,12.0453350093692,1.13,94.2,106.31,0.78,8.2,30.2,.00,6.10,6.10,96,44,581.1,16.4,-2.7,D,893.7,0,13.598,2,1.84,179,110.68,-118.48429814,33.44484744,0,0,1,N,1.67945,62,62,11,128,128,105.8228,0,9999.99,6.10,6.227,2,9,25.6,0,25.6000003814697,33.84,1534.52178,07/13/16,16:25:15,22.60,51.44,33.84,0.006,8.39,-81.5,1.3,-5.5,-2729,121.3,8.62,12.3,
38,33.4448885324365,-118.484425087534,16:28:15.72,7/13/2016,8,1.924,101.8,12.0453350093692,1.13,98.9,110.66,0.17,6.81,30.1,.00,6.07,6.07,96,45,581.1,16.4,-2.7,D,878.7,0,12.634,2,1.84,179,111.2,-118.48429814,33.44484744,0,0,1,N,1.439234,58,58,11,114,114,107.4801,0,9999.99,6.07,6.197,2,9,25.5,0,25.5,33.9,1534.34959,07/13/16,16:25:16,22.62,51.51,33.90,-0.075,8.40,-81.8,0.4,-3.6,-1000,121.4,8.62,12.3,
39,33.4448848603001,-118.484411758387,16:28:17.08,7/13/2016,8,1.9,105.05,12.0453350093692,1.13,102.9,114.36,1.04,10.5,30.1,.00,5.89,5.89,96,45,581.1,16.4,-2.7,D,874.6,0,11.333,2,1.87,179,111.54,-118.48429814,33.44484744,0,0,1,N,1.223331,63,63,11,106,106,108.9846,0,9999.99,5.88,6.007,2,9,25.5,0,25.5,33.84,1534.28512,07/13/16,16:25:17,22.64,51.44,33.84,0.000,8.39,-81.5,0.6,-2.7,822,121.4,8.62,12.3,
40,33.444882883285,-118.484402764531,16:28:18.09,7/13/2016,8,1.688,106.5,12.0453350093692,1.13,101.8,113.34,0.38,10.1,30.1,.00,5.62,5.63,96,45,581.1,16.4,-2.7,D,874.6,0,10.477,2,1.87,179,112.1,-118.48429814,33.44484744,0,0,1,N,1.026144,61,61,11,115,115,110.3695,0,9999.99,5.64,5.767,2,9,25.5,0,25.5,33.91,1534.36042,07/13/16,16:25:19,22.76,51.53,33.91,-0.104,8.40,-81.9,0.8,-0.1,-2264,121.6,8.61,12.3,
41,33.444879583468,-118.484392229296,16:28:19.11,7/13/2016,8,1.874,111.2,12.0453350093692,1.13,104.2,115.56,-1.68,8,30.1,.00,5.33,5.34,96,45,581.1,16.4,-2.7,D,874.6,0,9.433,2,1.86,179,112.27,-118.48429814,33.44484744,0,0,1,N,0.8932788,47,47,11,110,110,111.3073,0,9999.99,5.33,5.459655,2,9,25.5,0,25.5,33.91,1534.36042,07/13/16,16:25:19,22.76,51.53,33.91,-0.104,8.40,-81.9,0.8,-0.1,-2264,121.6,8.61,12.3,
42,33.4448751420868,-118.484381891483,16:28:20.14,7/13/2016,8,1.966,113.34,12.0453350093692,1.13,107.5,118.62,2.47,8.2,30.1,.01,5.30,5.31,96,45,581.1,16.4,-2.7,D,874.6,0,8.359,2,1.94,179,111.62,-118.48429814,33.44484744,0,0,1,N,0.879482,72,72,11,98,98,111.405,0,9999.99,5.29,5.417,2,9,25.5,0,25.5,33.78,1534.22086,07/13/16,16:25:21,22.86,51.36,33.78,-0.005,8.40,-81.9,1.1,-1.4,-2326,121.7,8.61,12.3,
43,33.4448705052866,-118.484372350718,16:28:21.14,7/13/2016,8,1.997,117.31,12.0453350093692,1.13,107,118.15,-0.15,8.3,30.1,.01,5.18,5.19,96,44,581.0,16.4,-2.6,D,895.9,0,7.347,2,1.97,179,110.43,-118.48429814,33.44484744,0,0,1,N,0.9240605,60,60,11,99,99,111.0897,0,9999.99,5.20,5.329265,2,9,25.5,0,25.5,33.78,1534.22086,07/13/16,16:25:21,22.86,51.36,33.78,-0.005,8.40,-81.9,1.1,-1.4,-2326,121.7,8.61,12.3,
44,33.4448669491158,-118.484362093472,16:28:22.14,7/13/2016,8,1.96,116.51,12.0453350093692,1.13,107.3,118.43,-2.38,6.77,30.1,.01,5.13,5.14,96,44,581.0,16.4,-2.6,D,895.9,0,6.318,2,1.93,179,110.08,-118.48429814,33.44484744,0,0,1,N,0.833503,43,43,11,100,100,111.7306,0,9999.99,5.13,5.257,2,9,25.5,0,25.5,33.79,1534.23177,07/13/16,16:25:23,22.85,51.37,33.79,0.094,8.40,-82.1,0.7,-1.2,-1951,122.0,8.64,12.4,
45,33.4448628149287,-118.484352931574,16:28:23.16,7/13/2016,8,1.913,117.52,12.0453350093692,1.13,110.9,121.77,1.5,8.9,30.1,.01,4.94,4.95,96,44,581.0,16.4,-2.6,D,895.9,0,5.364,2,1.94,179,108.59,-118.48429814,33.44484744,0,0,1,N,0.8405955,66,66,11,87,87,111.6807,0,6.15,4.92,11.197,2,9,25.5,0,25.5,33.79,1534.23177,07/13/16,16:25:23,22.85,51.37,33.79,0.094,8.40,-82.1,0.7,-1.2,-1951,122.0,8.64,12.4,
46,33.4448553752233,-118.484343840037,16:28:24.16,7/13/2016,8,1.863,118.41,12.0453350093692,1.13,109.2,120.19,-0.61,9.7,30.2,.00,5.14,5.14,96,44,581.0,16.4,-2.6,D,895.9,0,4.331,2,1.97,179,101.76,-118.48429814,33.44484744,0,0,1,N,1.183464,53,53,11,83,83,109.2649,0,9999.99,5.16,5.287,2,9,25.5,0,25.5,33.77,1534.21013,07/13/16,16:25:24,22.75,51.35,33.77,0.072,8.40,-81.9,0.6,-5.0,-3143,122.0,8.65,12.2,
47,33.4448519414645,-118.484334396519,16:28:25.17,7/13/2016,8,1.967,117.69,12.0453350093692,1.13,109.1,120.1,-1.95,4.79,30.1,.01,5.22,5.22,96,45,581.0,16.4,-2.7,D,875.1,0,3.401,2,1.95,179,98.46,-118.48429814,33.44484744,0,0,1,N,1.114742,45,45,11,86,86,109.7445,0,9999.99,5.21,5.337,2,9,25.5,0,25.5,33.75,1534.18852,07/13/16,16:25:26,22.70,51.32,33.75,0.099,8.40,-82.0,0.3,1.1,-2297,122.2,8.68,12.3,
48,33.4448454278298,-118.484325657293,16:28:26.17,7/13/2016,8,2.161,122.42,12.0453350093692,1.13,113,123.72,1.31,8.8,30.1,.01,5.23,5.24,96,45,581.0,16.4,-2.7,D,875.1,0,2.563,2,1.96,179,84.99,-118.48429814,33.44484744,0,0,1,N,1.372958,65,65,11,64,64,107.9398,0,9999.99,5.22,5.347,2,9,25.5,0,25.5,33.75,1534.18852,07/13/16,16:25:26,22.70,51.32,33.75,0.099,8.40,-82.0,0.3,1.1,-2297,122.2,8.68,12.3,
49,33.4448396360682,-118.484315482066,16:28:27.17,7/13/2016,8,2.022,122.06,12.0453350093692,1.13,110.7,121.58,-1.27,15.7,30.1,.00,5.22,5.23,96,45,581.0,16.4,-2.7,D,875.1,1,15.817,2,2.03,179,136.42,-118.48419797,33.44473659,0,0,1,N,1.856011,53,53,11,164,164,130.5014,0,9999.99,5.24,5.367,2,9,25.4,0,25.3999996185303,33.71,1533.90794,07/13/16,16:25:28,22.46,51.26,33.71,-0.130,8.39,-81.5,1.1,-2.1,1179,122.4,8.72,12.2,
50,33.4448338708432,-118.484306400136,16:28:28.17,7/13/2016,8,1.997,121.84,12.0453350093692,1.13,118.6,128.94,-1.5,5.83,30.2,.00,5.02,5.02,96,46,581.0,16.4,-2.8,D,862.2,1,14.773,2,2.03,179,137.08,-118.48419797,33.44473659,0,0,1,N,1.554092,46,46,11,141,141,131.9883,0,9999.99,5.00,5.131767,2,9,25.4,0,25.3999996185303,33.71,1533.90794,07/13/16,16:25:28,22.46,51.26,33.71,-0.130,8.39,-81.5,1.1,-2.1,1179,122.4,8.72,12.2,
51,33.4448276370908,-118.484298501124,16:28:29.17,7/13/2016,8,1.879,125.16,12.0453350093692,1.13,122.2,132.31,1.61,9.8,30.2,.01,5.12,5.13,96,46,581.0,16.4,-2.8,D,862.2,1,13.766,2,2.02,179,137.34,-118.48419797,33.44473659,0,0,1,N,1.373423,67,67,11,131,131,133.2404,0,29.26,5.11,34.497,2,9,25.4,0,25.3999996185303,33.92,1534.1346,07/13/16,16:25:30,22.43,51.54,33.92,0.103,8.41,-82.1,0.6,-3.0,-2724,122.3,8.71,12.3,
52,33.4448202744942,-118.484290497859,16:28:30.17,7/13/2016,8,2.087,128.84,12.0453350093692,1.13,124.8,134.75,0.27,8.8,30.2,.01,4.93,4.94,96,46,581.0,16.4,-2.8,D,862.2,1,12.661,2,1.95,179,137.31,-118.48419797,33.44473659,0,0,1,N,1.268569,59,59,11,124,124,133.9724,0,34.77,4.95,39.84838,2,9,25.4,0,25.3999996185303,33.92,1534.1346,07/13/16,16:25:30,22.43,51.54,33.92,0.103,8.41,-82.1,0.6,-3.0,-2724,122.3,8.71,12.3,
53,33.4448135585328,-118.484282044866,16:28:31.17,7/13/2016,8,1.978,129.83,12.0453350093692,1.13,129,138.72,-2.28,7.17,30.2,.01,4.99,5.00,96,46,581.0,16.4,-2.8,D,862.2,1,11.580,2,1.93,179,137.65,-118.48419797,33.44473659,0,0,1,N,1.083588,43,43,11,113,113,135.2692,0,40.83,4.99,45.947,2,9,25.4,0,25.3999996185303,33.97,1534.18836,07/13/16,16:25:32,22.60,51.61,33.97,0.107,8.40,-82.0,0.7,-3.1,-2355,122.3,8.69,12.3,
54,33.4448068888667,-118.484275233513,16:28:32.17,7/13/2016,8,1.964,135.36,12.0453350093692,1.13,131.7,141.28,0.95,8.4,30.2,.03,4.88,4.91,96,44,580.9,16.4,-2.7,D,889.4,1,10.607,2,1.92,179,137.48,-118.48419797,33.44473659,0,0,1,N,1.0209,59,59,11,108,108,135.7106,0,9999.99,4.86,4.987,2,9,25.4,0,25.3999996185303,33.97,1534.18836,07/13/16,16:25:32,22.60,51.61,33.97,0.107,8.40,-82.0,0.7,-3.1,-2355,122.3,8.69,12.3,
55,33.4447995971747,-118.484268214174,16:28:33.17,7/13/2016,7,1.903,138.26,12.0453350093692,1.22,132.1,141.66,2.11,10.6,30.2,.01,4.80,4.81,96,44,580.9,16.4,-2.7,D,889.4,1,9.569,2,1.94,179,137.07,-118.48419797,33.44473659,0,0,1,N,0.9890768,70,70,11,104,104,135.935,0,9999.99,4.81,4.937,2,9,25.4,0,25.3999996185303,33.9,1534.11387,07/13/16,16:25:34,22.75,51.53,33.90,-0.062,8.42,-83.0,0.8,-2.2,-544,122.5,8.68,12.3,
56,33.4447927090761,-118.484260181553,16:28:34.19,7/13/2016,8,2.048,137.33,12.0453350093692,1.13,133.1,142.61,-0.94,8.3,30.2,.00,4.73,4.73,96,44,580.9,16.4,-2.7,D,889.4,1,8.501,2,1.98,179,137.23,-118.48419797,33.44473659,0,0,1,N,0.853644,51,51,11,104,104,136.8922,0,9999.99,4.74,4.866613,2,9,25.4,0,25.3999996185303,33.9,1534.11387,07/13/16,16:25:34,22.75,51.53,33.90,-0.062,8.42,-83.0,0.8,-2.2,-544,122.5,8.68,12.3,
57,33.4447843733426,-118.484252969372,16:28:35.19,7/13/2016,8,1.965,140.06,12.0453350093692,1.13,132.3,141.85,0.74,8.6,30.2,.00,4.73,4.73,96,44,580.9,16.4,-2.7,D,888.7,1,7.367,2,1.95,179,136.16,-118.48419797,33.44473659,0,0,1,N,0.8789011,61,61,11,106,106,136.7137,0,9999.99,4.72,4.847,2,9,25.3,0,25.2999992370605,33.86,1533.8315,07/13/16,16:25:36,22.84,51.47,33.86,-0.010,8.41,-82.7,0.1,-7.5,-1763,122.8,8.69,12.3,
58,33.4447778491488,-118.484247869183,16:28:36.19,7/13/2016,8,1.798,140.34,12.0453350093692,1.13,134.8,144.24,-0.5,11.8,30.2,.00,4.67,4.67,96,44,580.9,16.4,-2.7,D,888.7,1,6.518,2,1.93,179,134.74,-118.48419797,33.44473659,0,0,1,N,0.9282761,55,55,11,94,94,136.3643,0,9999.99,4.68,4.807,2,9,25.3,0,25.2999992370605,33.86,1533.8315,07/13/16,16:25:36,22.84,51.47,33.86,-0.010,8.41,-82.7,0.1,-7.5,-1763,122.8,8.69,12.3,
59,33.444770645017,-118.48424163567,16:28:37.19,7/13/2016,8,1.858,141.89,12.0453350093692,1.13,136.3,145.67,0.88,5.63,30.2,.00,4.54,4.54,96,44,580.9,16.4,-2.7,D,888.7,1,5.545,2,1.89,179,133.07,-118.48419797,33.44473659,0,0,1,N,0.940174,62,62,11,89,89,136.2811,0,9999.99,4.54,4.663544,2,9,25.3,0,25.2999992370605,33.82,1533.78828,07/13/16,16:25:38,22.83,51.42,33.82,-0.003,8.42,-82.9,0.5,-2.4,-3774,123.3,8.73,12.3,
60,33.4447625876768,-118.484234772986,16:28:38.19,7/13/2016,8,2.077,144.76,12.0453350093692,1.13,139.3,148.55,0.31,10.6,30.2,.00,4.62,4.62,96,44,580.9,16.4,-2.7,D,888.7,1,4.474,2,1.96,179,130.25,-118.48419797,33.44473659,0,0,1,N,0.9677582,60,60,11,75,75,136.0858,0,9999.99,4.63,4.757,2,9,25.3,0,25.2999992370605,33.82,1533.78828,07/13/16,16:25:38,22.83,51.42,33.82,-0.003,8.42,-82.9,0.5,-2.4,-3774,123.3,8.73,12.3,
61,33.4447553745463,-118.484227312265,16:28:39.19,7/13/2016,8,1.957,143.83,12.0453350093692,1.13,135.6,145,-0.58,9.7,30.2,.00,4.37,4.37,96,45,580.9,16.4,-2.7,D,867.9,1,3.432,2,1.99,179,127.5,-118.48419797,33.44473659,0,0,1,N,0.9108407,54,54,11,91,91,136.488,0,9999.99,4.37,4.500998,2,9,25.3,0,25.2999992370605,33.85,1533.82087,07/13/16,16:25:39,22.82,51.46,33.85,-0.091,8.42,-83.0,-0.4,-3.4,-1200,123.5,8.74,12.4,
62,33.4447460835872,-118.484220256386,16:28:40.19,7/13/2016,8,2.037,146.98,12.0453350093692,1.13,141.2,150.39,0.84,4.46,30.2,.00,4.23,4.23,96,45,580.9,16.4,-2.7,D,867.9,1,2.322,2,1.98,179,117.04,-118.48419797,33.44473659,0,0,1,N,1.00132,62,62,11,69,69,135.8523,0,9999.99,4.22,4.347,2,9,25.3,0,25.2999992370605,33.84,1533.80981,07/13/16,16:25:41,22.85,51.44,33.84,-0.055,8.42,-83.1,0.5,-4.8,-1507,123.8,8.76,12.4,
63,33.4447388428148,-118.484214210068,16:28:41.20,7/13/2016,8,1.748,147.55,12.0453350093692,1.13,138,147.3,-0.73,11.8,30.2,.00,4.16,4.17,96,45,580.9,16.4,-2.7,D,867.9,2,114.905,2,1.97,179,216.06,-118.48494325,33.44390352,0,0,1,N,1.476431,53,53,11,250,250,206.2869,0,9999.99,4.17,4.297,2,9,25.3,0,25.2999992370605,33.84,1533.80981,07/13/16,16:25:41,22.85,51.44,33.84,-0.055,8.42,-83.1,0.5,-4.8,-1507,123.8,8.76,12.4,
64,33.4447301626906,-118.484210819251,16:28:42.22,7/13/2016,8,1.941,152.31,12.0453350093692,1.13,149.3,158.27,1.07,2,30.2,.00,4.16,4.16,96,44,580.8,16.4,-2.6,D,899.2,2,114.313,2,1.91,179,216.48,-118.48494325,33.44390352,0,0,1,N,0.629982,60,60,11,250,250,212.2397,0,9999.99,4.15,4.275926,2,9,25.3,0,25.2999992370605,33.84,1533.80986,07/13/16,16:25:43,22.86,51.44,33.84,-0.084,8.43,-83.5,1.3,-1.0,-1643,124.3,8.79,12.3,
65,33.4447225835032,-118.484206016947,16:28:43.22,7/13/2016,8,1.722,149.42,12.0453350093692,1.13,154.5,163.39,2.18,12.2,30.1,.01,4.34,4.35,96,44,580.8,16.4,-2.6,D,899.2,2,113.903,2,1.83,179,216.91,-118.48494325,33.44390352,0,0,1,N,0.2526107,70,70,11,250,250,218.5496,0,9999.99,4.35,4.477,2,9,25.3,0,25.2999992370605,33.84,1533.80986,07/13/16,16:25:43,22.86,51.44,33.84,-0.084,8.43,-83.5,1.3,-1.0,-1643,124.3,8.79,12.3,
66,33.4447161765046,-118.484201123655,16:28:44.22,7/13/2016,8,1.809,148.48,12.0453350093692,1.13,167,175.91,2.88,8.1,30.2,.01,4.22,4.24,96,44,580.8,16.4,-2.6,D,899.2,2,113.609,2,1.75,180,217.31,-118.48494325,33.44390352,0,0,1,N,1.053123,74,74,11,250,250,224.2402,0,9999.99,4.25,4.372425,2,9,25.3,0,25.2999992370605,33.84,1533.81075,07/13/16,16:25:45,22.88,51.44,33.84,-0.147,8.43,-83.6,1.4,-2.8,-803,124.7,8.82,12.4,
67,33.4447101006452,-118.484197606631,16:28:45.22,7/13/2016,7,1.602,153.96,12.0453350093692,1.22,178,187.14,2.6,7.02,30.2,.01,4.34,4.35,96,44,580.8,16.4,-2.6,D,899.2,2,113.271,2,1.66,180,217.65,-118.48494325,33.44390352,0,0,1,N,1.733475,73,73,11,250,250,228.9655,0,9999.99,4.37,4.496081,2,9,25.3,0,25.2999992370605,33.84,1533.81075,07/13/16,16:25:45,22.88,51.44,33.84,-0.147,8.43,-83.6,1.4,-2.8,-803,124.7,8.82,12.4,
68,33.4447039782186,-118.484197627052,16:28:46.23,7/13/2016,7,1.396,159.62,12.0453350093692,1.22,189.3,198.86,3.03,8.5,30.2,.01,4.47,4.47,96,45,580.8,16.4,-2.7,D,864.7,2,112.732,2,1.63,180,217.86,-118.48494325,33.44390352,0,0,1,N,2.165724,75,75,11,250,250,231.888,0,9999.99,4.49,4.617,2,9,25.3,0,25.2999992370605,33.92,1533.89663,07/13/16,16:25:47,22.91,51.55,33.92,-0.155,8.42,-83.4,1.0,-1.5,-479,125.2,8.85,12.2,
69,33.4446966867266,-118.484199701874,16:28:47.25,7/13/2016,7,1.582,172.83,12.0453350093692,1.22,194.3,204.08,2.45,7.46,30.2,.01,4.36,4.37,96,45,580.8,16.4,-2.7,D,864.7,2,111.974,2,1.61,181,218.03,-118.48494325,33.44390352,0,0,1,N,2.50533,72,72,11,247,247,234.1292,0,9999.99,4.39,4.517,2,9,25.3,0,25.2999992370605,33.92,1533.89663,07/13/16,16:25:47,22.91,51.55,33.92,-0.155,8.42,-83.4,1.0,-1.5,-479,125.2,8.85,12.2,
70,33.4446879654646,-118.484204880863,16:28:48.28,7/13/2016,7,1.87,172.83,12.0453350093692,1.22,205.1,215.43,2.41,10.9,30.2,.01,4.22,4.22,96,47,580.8,16.4,-2.8,D,837.1,2,110.914,2,1.59,182,218.15,-118.48494325,33.44390352,0,0,1,N,2.720201,71,71,11,207,207,235.5201,0,9999.99,4.24,4.365309,2,9,25.3,0,25.2999992370605,33.89,1533.8644,07/13/16,16:25:49,23.00,51.51,33.89,-0.150,8.44,-84.1,1.5,-4.7,-1096,125.7,8.87,12.4,
71,33.4446797333799,-118.484211899994,16:28:49.28,7/13/2016,8,1.594,187.71,12.0453350093692,1.22,214.6,225.44,3.07,7.76,30.1,.01,4.34,4.35,96,47,580.8,16.4,-2.8,D,837.1,2,109.792,2,1.59,182,218.17,-118.48494325,33.44390352,0,0,1,N,2.763715,75,75,11,168,168,235.798,0,9999.99,4.37,4.497,2,9,25.3,0,25.2999992370605,33.89,1533.8644,07/13/16,16:25:49,23.00,51.51,33.89,-0.150,8.44,-84.1,1.5,-4.7,-1096,125.7,8.87,12.4,
72,33.4446734608083,-118.484217311814,16:28:50.28,7/13/2016,7,1.573,187.71,12.0453350093692,1.22,220.6,231.76,1.66,5.42,30.1,.01,4.34,4.35,96,47,580.8,16.4,-2.8,D,837.1,2,108.934,2,1.61,182,218.19,-118.48494325,33.44390352,0,0,1,N,2.784488,67,67,11,144,144,235.9316,0,9999.99,4.37,4.497,2,9,25.3,0,25.2999992370605,33.83,1533.79965,07/13/16,16:25:51,23.05,51.43,33.83,-0.093,8.43,-83.9,1.5,-1.7,467,126.2,8.90,12.3,
73,33.4446687128936,-118.484224398326,16:28:51.30,7/13/2016,7,1.741,187.71,12.0453350093692,1.22,227.5,239.01,0.7,3.05,30.2,.00,4.25,4.25,96,49,580.8,16.4,-3,D,802,2,108.112,2,1.65,183,218.09,-118.48494325,33.44390352,0,0,1,N,2.589,59,59,11,114,114,234.6744,0,9999.99,4.25,4.377,2,9,25.3,0,25.2999992370605,33.83,1533.79965,07/13/16,16:25:51,23.05,51.43,33.83,-0.093,8.43,-83.9,1.5,-1.7,467,126.2,8.90,12.3,
74,33.4446635256781,-118.484233425107,16:28:52.30,7/13/2016,8,1.802,187.71,12.0453350093692,1.13,229,240.59,0.89,6.34,30.2,.00,4.15,4.15,96,49,580.8,16.4,-3,D,802,2,107.142,2,1.7,183,217.93,-118.48494325,33.44390352,0,0,1,N,2.268529,62,62,11,97,97,232.5719,0,9999.99,4.16,4.287,2,9,25.3,0,25.2999992370605,33.81,1533.77747,07/13/16,16:25:53,23.03,51.41,33.81,-0.074,8.45,-84.9,0.6,-1.9,-2497,126.8,8.95,12.4,
75,33.4446597468161,-118.484242975833,16:28:53.30,7/13/2016,8,1.866,221.42,12.0453350093692,1.13,229.9,241.53,0.38,8.8,30.2,.00,4.15,4.15,96,49,580.8,16.4,-3,D,802,2,106.267,2,1.78,183,217.69,-118.48494325,33.44390352,0,0,1,N,1.81236,59,59,11,79,79,229.5061,0,9999.99,4.16,4.287,2,9,25.3,0,25.2999992370605,33.81,1533.77747,07/13/16,16:25:53,23.03,51.41,33.81,-0.074,8.45,-84.9,0.6,-1.9,-2497,126.8,8.95,12.4,
76,33.4446561915415,-118.484251972746,16:28:54.30,7/13/2016,8,1.977,234.46,12.0453350093692,1.13,228.6,240.17,0.7,9.1,30.2,.00,4.56,4.56,96,49,580.8,16.4,-3,D,802,2,105.444,2,1.88,183,217.47,-118.48494325,33.44390352,0,0,1,N,1.374392,61,61,11,72,72,226.4893,0,5.41,4.57,10.107,2,9,25.3,0,25.2999992370605,33.83,1533.799,07/13/16,16:25:55,23.00,51.43,33.83,-0.106,8.44,-84.5,1.0,-2.6,-1012,127.4,8.99,12.3,
77,33.444652055273,-118.48426330351,16:28:55.30,7/13/2016,8,2.103,240.82,12.0453350093692,1.13,227.4,238.91,-0.87,11.3,30.2,.00,4.52,4.52,96,50,580.7,16.4,-3,D,788.4,2,104.441,2,1.96,183,217.16,-118.48494325,33.44390352,0,0,1,N,0.8137128,53,53,11,59,59,222.5492,0,50.42,4.51,55.0547,2,9,25.3,0,25.2999992370605,33.88,1533.85297,07/13/16,16:25:56,23.00,51.50,33.88,-0.076,8.45,-85.1,0.7,-3.1,-763,127.7,9.01,12.3,
78,33.4446489910599,-118.48427445517,16:28:56.30,7/13/2016,8,1.999,242.79,12.0453350093692,1.13,228.2,239.75,0.84,5.21,30.2,.00,4.53,4.53,96,50,580.7,16.4,-3,D,788.4,2,103.547,2,1.98,183,216.82,-118.48494325,33.44390352,0,0,1,N,0.1878095,62,62,11,40,40,218.0865,0,9999.99,4.54,4.667,2,9,25.3,0,25.2999992370605,33.88,1533.85297,07/13/16,16:25:56,23.00,51.50,33.88,-0.076,8.45,-85.1,0.7,-3.1,-763,127.7,9.01,12.3,
79,33.4446440921926,-118.484282836165,16:28:57.30,7/13/2016,8,2.066,240.9,12.0453350093692,1.13,224.4,235.75,0.37,8.6,30.2,.00,4.53,4.53,96,50,580.7,16.4,-3,D,788.4,2,102.645,2,2,183,216.65,-118.48494325,33.44390352,0,0,1,N,0.1204908,59,59,11,47,47,215.8788,0,9999.99,4.54,4.667,2,9,25.3,0,25.2999992370605,33.96,1533.93921,07/13/16,16:25:57,23.06,51.61,33.96,-0.035,8.44,-84.5,1.4,-3.2,288,127.9,9.01,12.4,
80,33.4446403333333,-118.484294833333,16:28:58.34,7/13/2016,8,2.102,243.75,12.0453350093692,1.13,221.2,232.39,-0.05,9.7,30.2,.01,4.19,4.19,96,51,580.7,16.4,-3.1,D,765.6,2,101.585,2,2.05,183,216.41,-118.48494325,33.44390352,0,0,1,N,0.546707,56,56,11,50,50,212.8323,0,9999.99,4.18,4.311104,2,9,25.3,0,25.2999992370605,33.86,1533.83168,07/13/16,16:25:59,23.20,51.48,33.86,-0.043,8.44,-84.4,1.6,-1.5,29,128.5,9.04,12.3,
81,33.4446343333333,-118.484304,16:28:59.38,7/13/2016,8,2.022,236.5,12.0453350093692,1.13,222,233.23,0.47,3.92,30.1,.00,4.38,4.38,96,51,580.7,16.4,-3.1,D,765.6,2,100.640,2,2.04,183,216.12,-118.48494325,33.44390352,0,0,1,N,1.055071,60,60,11,31,31,209.2287,0,9999.99,4.38,4.507,2,9,25.3,0,25.2999992370605,33.86,1533.83168,07/13/16,16:25:59,23.20,51.48,33.86,-0.043,8.44,-84.4,1.6,-1.5,29,128.5,9.04,12.3,
82,33.444628,-118.484313666667,16:29:00.39,7/13/2016,8,2.017,234.41,12.0453350093692,1.13,218.9,229.97,0.9,5.67,30.2,.00,4.60,4.61,96,51,580.7,16.4,-3.1,D,765.6,2,99.591,2,2.03,183,215.97,-118.48494325,33.44390352,0,0,1,N,1.310154,60,60,11,31,31,207.4411,0,9999.99,4.61,4.737,2,9,25.3,0,25.2999992370605,33.85,1533.82059,07/13/16,16:26:01,23.21,51.46,33.85,-0.070,8.45,-84.8,1.0,-5.3,-1856,129.0,9.07,12.3,
83,33.4446209094368,-118.484324364677,16:29:01.41,7/13/2016,8,2.049,233.85,12.0453350093692,1.13,212.6,223.33,-0.21,10.6,30.2,.00,4.60,4.60,96,51,580.7,16.4,-3.1,D,765.6,2,98.289,2,2.05,183,215.75,-118.48494325,33.44390352,0,0,1,N,1.535356,56,56,11,53,53,204.8352,0,9999.99,4.60,4.722566,2,9,25.3,0,25.2999992370605,33.85,1533.82059,07/13/16,16:26:01,23.21,51.46,33.85,-0.070,8.45,-84.8,1.0,-5.3,-1856,129.0,9.07,12.3,
84,33.4446161666667,-118.484333333333,16:29:02.42,7/13/2016,8,1.998,230.41,12.0453350093692,1.13,210.9,221.54,0.3,8.3,30.2,.00,4.73,4.73,96,51,580.7,16.4,-3.1,D,776.7,2,97.294,2,2.03,183,215.66,-118.48494325,33.44390352,0,0,1,N,1.822317,59,59,11,56,56,203.9097,0,9999.99,4.73,4.857,2,9,25.3,0,25.2999992370605,33.84,1533.80999,07/13/16,16:26:03,23.21,51.45,33.84,-0.037,8.44,-84.3,1.0,-5.6,-3430,129.4,9.10,12.4,
85,33.4446089082448,-118.484344624449,16:29:03.42,7/13/2016,7,2.189,230.03,12.0453350093692,1.31,208.4,218.9,0.25,8.1,30.2,.00,4.86,4.86,96,51,580.7,16.4,-3.1,D,776.7,2,96.111,2,2.11,183,215.3,-118.48494325,33.44390352,0,0,1,N,2.147889,58,58,11,51,51,200.0753,0,9999.99,4.86,4.987,2,9,25.3,0,25.2999992370605,33.84,1533.80999,07/13/16,16:26:03,23.21,51.45,33.84,-0.037,8.44,-84.3,1.0,-5.6,-3430,129.4,9.10,12.4,
86,33.4446010916292,-118.484352284984,16:29:04.42,7/13/2016,7,2.196,219.54,12.0453350093692,1.31,205.6,215.95,1.27,8.3,30.2,.01,4.81,4.81,96,51,580.7,16.4,-3.1,D,776.7,2,94.990,2,2.2,183,215.26,-118.48494325,33.44390352,0,0,1,N,2.448483,65,65,11,62,62,199.6333,0,9999.99,4.82,4.947,2,9,25.3,0,25.2999992370605,33.83,1533.79942,07/13/16,16:26:05,23.19,51.44,33.83,-0.045,8.43,-84.0,1.6,0.9,-3780,129.7,9.12,12.3,
87,33.4445932750118,-118.484359642591,16:29:05.44,7/13/2016,7,2.049,220.45,12.0453350093692,1.32,202.1,212.27,1.01,10.9,30.2,.00,4.77,4.77,96,52,580.6,16.4,-3.2,D,753.6,2,93.887,2,2.17,183,215.22,-118.48494325,33.44390352,0,0,1,N,2.431775,63,63,11,76,76,199.4109,0,40.39,4.78,45.29854,2,9,25.3,0,25.2999992370605,33.83,1533.79942,07/13/16,16:26:05,23.19,51.44,33.83,-0.045,8.43,-84.0,1.6,0.9,-3780,129.7,9.12,12.3,
88,33.4445830746979,-118.484364876074,16:29:06.44,7/13/2016,7,2.159,217.43,12.0453350093692,1.32,199.2,209.22,0.5,13.8,30.2,.01,4.56,4.56,96,52,580.6,16.4,-3.2,D,753.6,2,92.680,2,2.14,183,215.38,-118.48494325,33.44390352,0,0,1,N,2.404609,60,60,11,100,100,201.2201,0,9999.99,4.56,4.686802,2,9,25.3,0,25.2999992370605,33.85,1533.82079,07/13/16,16:26:06,23.19,51.46,33.85,-0.117,8.44,-84.3,1.7,-4.3,-756,129.8,9.13,12.3,
89,33.4445743737134,-118.484371629818,16:29:07.44,7/13/2016,7,2,213.84,12.0453350093692,1.32,199.2,209.22,0.39,10.3,30.2,.00,4.74,4.74,96,52,580.6,16.4,-3.2,D,753.6,2,91.529,2,2.15,183,215.41,-118.48494325,33.44390352,0,0,1,N,2.076413,59,59,11,97,97,201.7797,0,9999.99,4.74,4.867,2,9,25.3,0,25.2999992370605,33.84,1533.81022,07/13/16,16:26:07,23.20,51.44,33.84,-0.065,8.44,-84.3,1.2,-4.6,-177,129.8,9.13,12.3,
90,33.4445661947488,-118.484377454255,16:29:08.45,7/13/2016,7,2.02,212.55,12.0453350093692,1.32,200.8,210.9,0.7,7.87,30.1,.00,4.58,4.58,96,52,580.6,16.4,-3.2,D,753.6,2,90.474,2,2.18,183,215.47,-118.48494325,33.44390352,0,0,1,N,1.993733,61,61,11,93,93,202.5109,0,9999.99,4.59,4.717,2,9,25.3,0,25.2999992370605,33.79,1533.75599,07/13/16,16:26:09,23.17,51.38,33.79,-0.095,8.44,-84.5,1.3,-2.3,-1033,130.0,9.15,12.3,
91,33.44455873975,-118.484385563641,16:29:09.45,7/13/2016,7,2.082,212.69,12.0453350093692,1.32,200.9,211.01,1.11,10,30.2,.00,4.50,4.50,96,50,580.6,16.4,-3,D,791.5,2,89.363,2,2.16,183,215.38,-118.48494325,33.44390352,0,0,1,N,1.869543,64,64,11,88,88,201.8125,0,38.60,4.51,43.237,2,9,25.3,0,25.2999992370605,33.79,1533.75599,07/13/16,16:26:09,23.17,51.38,33.79,-0.095,8.44,-84.5,1.3,-2.3,-1033,130.0,9.15,12.3,
92,33.4445507785581,-118.484391918695,16:29:10.47,7/13/2016,7,2.013,213.24,12.0453350093692,1.32,200.3,210.38,-0.2,6.73,30.1,.00,4.45,4.45,96,50,580.6,16.4,-3,D,791.5,2,88.300,2,2.12,183,215.4,-118.48494325,33.44390352,0,0,1,N,1.997434,56,56,11,94,94,202.2062,0,6.74,4.45,11.317,2,9,25.3,0,25.2999992370605,33.79,1533.75598,07/13/16,16:26:11,23.09,51.38,33.79,-0.110,8.44,-84.1,2.1,-4.8,-149,130.2,9.18,12.3,
93,33.44454278702,-118.484398198934,16:29:11.47,7/13/2016,7,1.984,211.59,12.0453350093692,1.32,202.7,212.9,-0.1,9,30.2,.00,4.44,4.44,96,50,580.6,16.4,-3,D,791.5,2,87.238,2,2.09,183,215.43,-118.48494325,33.44390352,0,0,1,N,1.989406,56,56,11,86,86,202.6875,0,5.94,4.44,10.507,2,9,25.3,0,25.2999992370605,33.8,1533.76679,07/13/16,16:26:12,23.05,51.39,33.80,-0.054,8.44,-84.2,1.6,0.6,-4468,130.2,9.18,12.3,
94,33.4445340684547,-118.484405868837,16:29:12.56,7/13/2016,7,1.969,215.12,12.0453350093692,1.32,206.8,217.22,0.35,5.87,30.2,.00,4.35,4.35,96,48,580.5,16.4,-2.9,D,819.1,2,86.035,2,2.13,183,215.42,-118.48494325,33.44390352,0,0,1,N,1.993114,59,59,11,69,69,202.7524,0,9999.99,4.35,4.477,2,9,25.3,0,25.2999992370605,33.8,1533.76679,07/13/16,16:26:12,23.05,51.39,33.80,-0.054,8.44,-84.2,1.6,0.6,-4468,130.2,9.18,12.3,
95,33.4445269290689,-118.48441361069,16:29:13.58,7/13/2016,7,2.065,218.19,12.0453350093692,1.32,204,214.27,0.27,10.4,30.1,.00,4.24,4.24,96,48,580.5,16.4,-2.9,D,819.1,2,84.972,2,2.13,183,215.33,-118.48494325,33.44390352,0,0,1,N,2.099925,59,59,11,78,78,202.0346,0,9999.99,4.25,4.377,2,9,25.3,0,25.2999992370605,33.84,1533.80981,07/13/16,16:26:14,22.98,51.44,33.84,-0.088,8.43,-83.4,1.1,0.4,-1440,130.3,9.20,12.3,
96,33.444521477338,-118.484422601501,16:29:14.59,7/13/2016,7,2.015,223.69,12.0453350093692,1.32,204.8,215.11,-1.18,8.8,30.1,.01,4.22,4.22,96,51,580.5,16.4,-3.1,D,772.9,2,83.996,2,2.09,183,215.11,-118.48494325,33.44390352,0,0,1,N,2.399833,50,50,11,68,68,200.0442,0,9999.99,4.21,4.337,2,9,25.3,0,25.2999992370605,33.84,1533.80981,07/13/16,16:26:14,22.98,51.44,33.84,-0.088,8.43,-83.4,1.1,0.4,-1440,130.3,9.20,12.3,
97,33.4445130198711,-118.484428831427,16:29:15.59,7/13/2016,7,1.97,215.18,12.0453350093692,1.32,205.9,216.27,0.85,4.03,30.2,.01,4.26,4.26,96,51,580.5,16.4,-3.1,D,772.9,2,82.894,2,2.11,183,215.16,-118.48494325,33.44390352,0,0,1,N,2.300595,62,62,11,65,65,200.6984,0,9999.99,4.26,4.387,2,9,25.3,0,25.2999992370605,33.85,1533.82114,07/13/16,16:26:16,23.02,51.46,33.85,0.017,8.43,-83.6,1.5,0.2,-2592,130.3,9.19,12.3,
98,33.4445062659124,-118.484435451589,16:29:16.61,7/13/2016,7,2.033,218.54,12.0453350093692,1.32,204.5,214.8,0.89,9.9,30.1,.00,4.18,4.18,96,51,580.5,16.4,-3.1,D,772.9,2,81.926,2,2.13,183,215.11,-118.48494325,33.44390352,0,0,1,N,2.346499,62,62,11,69,69,200.3952,0,9999.99,4.19,4.317,2,9,25.3,0,25.2999992370605,33.85,1533.82114,07/13/16,16:26:16,23.02,51.46,33.85,0.017,8.43,-83.6,1.5,0.2,-2592,130.3,9.19,12.3,
99,33.4445033647044,-118.484444214396,16:29:17.63,7/13/2016,7,1.869,226.71,12.0453350093692,1.32,201.9,212.06,1.53,8,30.2,.00,4.15,4.15,96,51,580.5,16.4,-3.1,D,772.9,2,81.196,2,2.09,182,214.77,-118.48494325,33.44390352,0,0,1,N,2.815984,66,66,11,80,80,197.3504,0,9999.99,4.16,4.287,2,9,25.3,0,25.2999992370605,33.86,1533.83148,07/13/16,16:26:18,23.04,51.47,33.86,-0.051,8.43,-83.6,1.3,-3.7,-2414,130.3,9.19,12.4,
100,33.4444953220653,-118.484451552052,16:29:18.64,7/13/2016,7,1.983,215.38,12.0453350093692,1.68,202.7,212.9,0.62,6.62,30.2,.00,3.87,3.87,96,51,580.5,16.4,-3.1,D,773.9,2,80.073,2,2.04,182,214.73,-118.48494325,33.44390352,0,0,1,N,2.817963,61,61,11,65,65,197.3378,0,9999.99,3.87,4.000223,2,9,25.3,0,25.2999992370605,33.84,1533.80995,07/13/16,16:26:19,23.05,51.45,33.84,-0.101,8.44,-84.0,1.4,-2.4,-435,130.3,9.19,12.4,
101,33.4444864696219,-118.484457953012,16:29:19.64,7/13/2016,7,2.069,217.88,12.0453350093692,1.32,198,207.96,0.11,11.6,30.2,.00,3.80,3.80,96,51,580.5,16.4,-3.1,D,773.9,2,78.926,2,2.11,182,214.79,-118.48494325,33.44390352,0,0,1,N,2.717175,58,58,11,87,87,197.9824,0,9999.99,3.80,3.927,2,9,25.3,0,25.2999992370605,33.84,1533.80986,07/13/16,16:26:20,23.05,51.45,33.84,-0.095,8.43,-83.9,1.8,-1.6,1468,130.3,9.19,12.2,
102,33.4444790752355,-118.484462746708,16:29:20.64,7/13/2016,7,1.884,215.53,12.0453350093692,1.32,199,209.01,1.43,9.5,30.2,.00,3.94,3.94,96,51,580.5,16.4,-3.1,D,773.9,2,77.997,2,2.07,182,214.86,-118.48494325,33.44390352,0,0,1,N,2.576055,64,64,11,87,87,198.8935,0,9999.99,3.94,4.067,2,9,25.3,0,25.2999992370605,33.83,1533.79911,07/13/16,16:26:21,23.04,51.43,33.83,-0.036,8.44,-84.1,2.0,-2.9,-2823,130.3,9.19,12.4,
103,33.4444704152559,-118.484469229389,16:29:21.64,7/13/2016,7,1.859,214.69,12.0453350093692,1.32,199.5,209.54,0.24,10.6,30.2,.00,4.03,4.04,96,49,580.5,16.4,-2.9,D,806.1,2,76.863,2,2.03,182,214.9,-118.48494325,33.44390352,0,0,1,N,2.481815,58,58,11,87,87,199.507,0,9999.99,4.04,4.167,2,9,25.3,0,25.2999992370605,33.81,1533.77779,07/13/16,16:26:22,23.03,51.41,33.81,-0.117,8.43,-83.9,1.0,-2.6,-2140,130.3,9.19,12.3,
104,33.4444618837257,-118.484474680906,16:29:22.64,7/13/2016,7,2.076,212.41,12.0453350093692,1.32,198,207.96,1.1,12,30.1,.00,3.84,3.84,96,49,580.5,16.4,-2.9,D,806.1,2,75.796,2,2.05,182,215,-118.48494325,33.44390352,0,0,1,N,2.320807,64,64,11,97,97,200.5648,0,9999.99,3.85,3.977,2,9,25.3,0,25.2999992370605,33.84,1533.81012,07/13/16,16:26:23,23.02,51.44,33.84,-0.028,8.44,-84.2,1.2,-2.8,-1064,130.4,9.20,12.4,
105,33.4444525347791,-118.484478874059,16:29:23.66,7/13/2016,7,1.922,205.24,12.0453350093692,1.32,200.9,211.01,0.67,3.83,30.2,.00,3.69,3.69,96,49,580.5,16.4,-2.9,D,806.1,2,74.722,2,2.05,182,215.21,-118.48494325,33.44390352,0,0,1,N,2.008213,61,61,11,94,94,202.6508,0,55.23,3.69,59.047,2,9,25.3,0,25.2999992370605,33.83,1533.79914,07/13/16,16:26:24,23.02,51.43,33.83,-0.097,8.43,-83.9,1.2,0.7,-91,130.4,9.20,12.2,
106,33.4444433443161,-118.484483372147,16:29:24.66,7/13/2016,7,2.126,205.01,12.0453350093692,1.32,201.8,211.95,0.23,7.3,30.2,.00,3.78,3.79,96,49,580.5,16.4,-2.9,D,806.1,2,73.646,2,2.1,182,215.41,-118.48494325,33.44390352,0,0,1,N,1.728855,58,58,11,97,97,204.5478,0,9999.99,3.78,3.906245,2,9,25.3,0,25.2999992370605,33.85,1533.82088,07/13/16,16:26:25,23.02,51.45,33.85,-0.098,8.44,-84.1,1.4,-7.0,-1504,130.4,9.20,12.3,
107,33.4444350290804,-118.484489034595,16:29:25.67,7/13/2016,7,2.035,210.54,12.0453350093692,1.32,202.6,212.8,-0.13,12.5,30.2,.01,3.71,3.71,96,48,580.4,16.4,-2.9,D,825.6,2,72.589,2,2.06,182,215.49,-118.48494325,33.44390352,0,0,1,N,1.589916,56,56,11,98,98,205.502,0,9999.99,3.71,3.837,2,9,25.3,0,25.2999992370605,33.78,1533.74549,07/13/16,16:26:26,23.03,51.37,33.78,-0.076,8.43,-84.0,1.3,-3.1,-3610,130.4,9.21,12.3,
108,33.4444268550555,-118.484496240199,16:29:26.72,7/13/2016,7,1.889,212.92,12.0453350093692,1.32,201.8,211.95,-0.06,7.87,30.2,.00,3.60,3.60,96,48,580.4,16.4,-2.9,D,825.6,2,71.460,2,2.02,182,215.48,-118.48494325,33.44390352,0,0,1,N,1.581927,57,57,11,101,101,205.5571,0,9999.99,3.60,3.727,2,9,25.2,0,25.2000007629395,33.85,1533.58209,07/13/16,16:26:27,23.00,51.45,33.85,-0.077,8.43,-84.0,2.1,-4.8,-2154,130.5,9.21,12.4,
109,33.4444200798974,-118.484502149978,16:29:27.72,7/13/2016,7,1.939,213.4,12.0453350093692,1.32,204.6,214.9,0.52,8,30.3,.00,3.67,3.67,96,48,580.4,16.4,-2.9,D,825.6,2,70.529,2,1.98,182,215.47,-118.48494325,33.44390352,0,0,1,N,1.562733,60,60,11,90,90,205.6894,0,9999.99,3.67,3.797,2,9,25.2,0,25.2000007629395,33.83,1533.5605,07/13/16,16:26:28,23.00,51.43,33.83,-0.053,8.43,-84.0,1.4,2.4,-1896,130.5,9.21,12.2,
110,33.4444122835599,-118.484508737659,16:29:28.72,7/13/2016,7,2.003,215,12.0453350093692,1.32,207.1,217.53,0.53,7.23,30.3,.01,3.73,3.74,96,48,580.4,16.4,-2.9,D,818,2,69.468,2,2.03,182,215.48,-118.48494325,33.44390352,0,0,1,N,1.532305,60,60,11,80,80,205.8994,0,9999.99,3.73,3.857,2,9,25.2,0,25.2000007629395,33.84,1533.57158,07/13/16,16:26:29,23.00,51.45,33.84,-0.065,8.44,-84.1,1.6,0.6,-3763,130.6,9.21,12.5,
111,33.4444051590524,-118.484517099914,16:29:29.72,7/13/2016,7,2.045,221.36,12.0453350093692,1.32,207.9,218.38,0.92,7.77,30.2,.01,3.82,3.82,96,48,580.4,16.4,-2.9,D,818,2,68.373,2,2.05,182,215.33,-118.48494325,33.44390352,0,0,1,N,1.681918,61,61,11,82,82,204.8695,0,9999.99,3.82,3.947,2,9,25.2,0,25.2000007629395,33.85,1533.58247,07/13/16,16:26:30,23.01,51.46,33.85,-0.077,8.43,-84.0,1.0,-5.7,-2352,130.6,9.21,12.3,
112,33.4443981922336,-118.484524566877,16:29:30.72,7/13/2016,7,2.138,218.03,12.0453350093692,1.32,205.7,216.06,-0.03,8.4,30.3,.00,3.71,3.72,96,48,580.4,16.4,-2.9,D,818,2,67.340,2,2.08,182,215.23,-118.48494325,33.44390352,0,0,1,N,1.768762,58,58,11,74,74,204.2753,0,9999.99,3.72,3.847,2,9,25.2,0,25.2000007629395,33.84,1533.57169,07/13/16,16:26:31,23.02,51.45,33.84,-0.096,8.43,-83.9,1.2,-3.0,-1363,130.6,9.22,12.4,
113,33.444390533016,-118.484532085136,16:29:31.72,7/13/2016,7,1.971,219.85,12.0453350093692,1.32,204.9,215.22,0.89,7.9,30.2,.00,3.41,3.42,96,48,580.4,16.4,-2.9,D,818,2,66.242,2,2.11,182,215.16,-118.48494325,33.44390352,0,0,1,N,1.825668,62,62,11,82,82,203.8872,0,9999.99,3.42,3.547,2,9,25.2,0,25.2000007629395,33.84,1533.57137,07/13/16,16:26:32,23.03,51.45,33.84,-0.061,8.43,-84.0,1.2,-2.0,-3310,130.7,9.22,12.3,
114,33.4443831322251,-118.4845400455,16:29:32.72,7/13/2016,7,2.023,222.88,12.0453350093692,1.32,202.6,212.8,-0.13,12.2,30.2,.00,3.40,3.40,96,50,580.3,16.4,-3,D,790.1,2,65.144,2,2.11,182,215.05,-118.48494325,33.44390352,0,0,1,N,1.930901,56,56,11,89,89,203.1729,0,9999.99,3.40,3.531091,2,9,25.2,0,25.2000007629395,33.84,1533.5713,07/13/16,16:26:33,23.03,51.45,33.84,-0.112,8.44,-84.2,1.2,0.0,-2486,130.8,9.23,12.3,
115,33.44437714398,-118.484547038263,16:29:33.72,7/13/2016,8,2.003,223.74,12.0453350093692,1.32,203.3,213.53,-0.3,10.7,30.2,.00,3.64,3.65,96,50,580.3,16.4,-3,D,790.1,2,64.226,2,2.09,182,214.92,-118.48494325,33.44390352,0,0,1,N,2.053692,53,53,11,85,85,202.3449,0,9999.99,3.64,3.767,2,9,25.2,0,25.2000007629395,33.85,1533.58229,07/13/16,16:26:34,23.03,51.46,33.85,-0.051,8.43,-83.6,2.0,-6.5,-970,130.8,9.23,12.3,
116,33.4443699382069,-118.484553777483,16:29:34.72,7/13/2016,8,1.852,220.08,12.0453350093692,1.32,206.2,216.59,-0.13,6.6,30.2,.00,3.52,3.52,96,50,580.3,16.4,-3,D,790.1,2,63.212,2,2.07,182,214.87,-118.48494325,33.44390352,0,0,1,N,2.077046,60,60,11,74,74,202.188,0,9999.99,3.53,3.657,2,9,25.2,0,25.2000007629395,33.84,1533.57139,07/13/16,16:26:35,23.04,51.45,33.84,-0.042,8.43,-84.0,1.5,-0.8,-840,130.8,9.22,12.3,
117,33.4443618191392,-118.484561047504,16:29:35.72,7/13/2016,8,2.11,217.12,12.0453350093692,1.32,203,213.22,-0.03,6.92,30.2,.00,3.53,3.53,96,49,580.3,16.4,-2.9,D,806.7,2,62.085,2,2.07,182,214.83,-118.48494325,33.44390352,0,0,1,N,2.079972,57,57,11,83,83,202.1684,0,9999.99,3.52,3.648197,2,9,25.2,0,25.2000007629395,33.82,1533.54977,07/13/16,16:26:36,23.03,51.42,33.82,-0.082,8.43,-83.7,1.3,-5.7,-834,130.8,9.23,12.3,
118,33.4443540328457,-118.484569344724,16:29:36.75,7/13/2016,7,2.072,219.03,12.0453350093692,1.32,205.3,215.64,0.45,8.2,30.2,.00,3.67,3.67,96,49,580.3,16.4,-2.9,D,806.7,2,60.935,2,2.14,182,214.7,-118.48494325,33.44390352,0,0,1,N,2.17135,60,60,11,71,71,201.5571,0,9999.99,3.68,3.804137,2,9,25.2,0,25.2000007629395,33.84,1533.57119,07/13/16,16:26:37,23.01,51.44,33.84,-0.037,8.42,-83.3,1.6,-4.4,-596,130.8,9.23,12.3,
119,33.4443466864108,-118.484575660663,16:29:37.77,7/13/2016,7,1.991,217.65,12.0453350093692,1.32,205.2,215.53,-0.58,10.4,30.2,.00,3.73,3.73,96,49,580.3,16.4,-2.9,D,806.7,2,59.930,2,2.09,182,214.69,-118.48494325,33.44390352,0,0,1,N,2.152611,54,54,11,72,72,201.6823,0,9999.99,3.73,3.857,2,9,25.2,0,25.2000007629395,33.87,1533.60351,07/13/16,16:26:38,23.02,51.48,33.87,-0.099,8.42,-83.3,1.0,-4.0,-2805,130.9,9.23,12.3,
120,33.4443390003454,-118.484582162129,16:29:38.77,7/13/2016,7,1.946,216.2,12.0453350093692,1.32,204.6,214.9,0.12,7.89,30.2,.00,3.88,3.88,96,49,580.3,16.4,-2.9,D,806.7,2,58.884,2,2.1,182,214.68,-118.48494325,33.44390352,0,0,1,N,2.126467,58,58,11,75,75,201.857,0,9999.99,3.88,4.007,2,9,25.2,0,25.2000007629395,33.85,1533.58223,07/13/16,16:26:39,23.03,51.45,33.85,-0.046,8.43,-83.5,0.8,-3.8,-1218,130.8,9.23,12.3,
121,33.4443300609253,-118.484589098823,16:29:39.77,7/13/2016,7,2.062,214,12.0453350093692,1.32,204.7,215.01,0.41,9.3,30.2,.00,3.83,3.83,96,47,580.3,16.4,-2.9,D,828.7,2,57.700,2,2.09,182,214.71,-118.48494325,33.44390352,0,0,1,N,2.044326,59,59,11,77,77,202.4078,0,23.47,3.83,27.427,2,9,25.2,0,25.2000007629395,33.86,1533.59282,07/13/16,16:26:40,23.05,51.47,33.86,-0.097,8.42,-83.4,1.0,-2.2,1309,130.8,9.22,12.2,
122,33.4443219522024,-118.484595277381,16:29:40.78,7/13/2016,7,2.067,214.35,12.0453350093692,1.32,203,213.22,1.25,5.85,30.2,.00,3.82,3.83,96,47,580.3,16.4,-2.9,D,828.7,2,56.633,2,2.09,182,214.76,-118.48494325,33.44390352,0,0,1,N,1.965822,65,65,11,86,86,202.9368,0,47.75,3.83,51.707,2,9,25.2,0,25.2000007629395,33.86,1533.59313,07/13/16,16:26:41,23.07,51.47,33.86,-0.070,8.42,-83.0,1.1,-5.6,-801,130.8,9.22,12.4,
123,33.4443130227276,-118.484602578817,16:29:41.78,7/13/2016,7,2.208,214.91,12.0453350093692,1.32,204.6,214.9,-0.1,10.3,30.2,.00,3.63,3.63,96,47,580.3,16.4,-2.9,D,828.7,2,55.431,2,2.11,182,214.77,-118.48494325,33.44390352,0,0,1,N,1.913102,56,56,11,81,81,203.2934,0,9999.99,3.64,3.762242,2,9,25.2,0,25.2000007629395,33.84,1533.57152,07/13/16,16:26:42,23.07,51.44,33.84,-0.132,8.43,-83.5,0.3,-1.4,-2082,130.7,9.21,12.3,
124,33.444304284801,-118.484608234883,16:29:42.80,7/13/2016,7,1.966,210.89,12.0453350093692,1.32,202.7,212.9,1.18,4.41,30.2,.00,3.84,3.85,96,50,580.2,16.4,-3,D,790.2,2,54.333,2,2.13,182,214.9,-118.48494325,33.44390352,0,0,1,N,1.767741,62,62,11,102,102,204.2822,0,9999.99,3.85,3.977,2,9,25.2,0,25.2000007629395,33.83,1533.56046,07/13/16,16:26:43,23.07,51.43,33.83,-0.057,8.43,-83.6,1.2,-1.8,-3139,130.6,9.21,12.4,
125,33.444298133144,-118.484614218822,16:29:43.80,7/13/2016,7,1.989,214.4,12.0453350093692,1.32,203.3,213.53,0.4,8.7,30.3,.00,3.94,3.94,96,50,580.2,16.4,-3,D,790.2,2,53.455,2,2.1,182,214.83,-118.48494325,33.44390352,0,0,1,N,1.794423,59,59,11,89,89,204.1001,0,9999.99,3.94,4.070253,2,9,25.2,0,25.2000007629395,33.84,1533.57121,07/13/16,16:26:44,23.06,51.44,33.84,-0.108,8.42,-83.2,1.5,-1.3,-927,130.5,9.20,12.1,
126,33.4442904618403,-118.484621412751,16:29:44.80,7/13/2016,8,2.024,216.46,12.0453350093692,1.32,201.7,211.85,0.72,7.97,30.2,.00,4.15,4.16,96,49,580.2,16.4,-3,D,800.4,2,52.373,2,2.1,182,214.76,-118.48494325,33.44390352,0,0,1,N,1.824867,61,61,11,95,95,203.8927,0,9999.99,4.16,4.287,2,9,25.2,0,25.2000007629395,33.84,1533.57125,07/13/16,16:26:45,23.06,51.44,33.84,-0.068,8.43,-83.5,0.9,-0.2,-1046,130.4,9.20,12.3,
127,33.4442827252513,-118.484628439401,16:29:45.80,7/13/2016,7,2.183,215.24,12.0453350093692,1.32,203.5,213.74,0.4,9.4,30.2,.00,3.91,3.91,96,49,580.2,16.4,-3,D,800.4,2,51.295,2,2.16,182,214.71,-118.48494325,33.44390352,0,0,1,N,1.82835,59,59,11,88,88,203.869,0,9999.99,3.91,4.034248,2,9,25.2,0,25.2000007629395,33.83,1533.56062,07/13/16,16:26:46,23.06,51.43,33.83,-0.081,8.43,-83.8,0.9,-0.5,-758,130.4,9.20,12.3,
128,33.444275655766,-118.484633762111,16:29:46.80,7/13/2016,7,2.026,213.07,12.0453350093692,1.32,203.7,213.95,-0.25,6.4,30.3,.00,3.85,3.85,96,49,580.2,16.4,-3,D,800.4,2,50.367,2,2.14,182,214.76,-118.48494325,33.44390352,0,0,1,N,1.751275,55,55,11,86,86,204.3946,0,9999.99,3.85,3.977,2,9,25.2,0,25.2000007629395,33.83,1533.56054,07/13/16,16:26:47,23.05,51.44,33.83,-0.073,8.43,-83.5,0.6,-5.6,-1614,130.4,9.19,12.3,
129,33.4442636408385,-118.484638808718,16:29:47.80,7/13/2016,7,2.349,204.74,12.0453350093692,1.32,203.5,213.74,1.25,8.7,30.2,.00,4.26,4.26,96,49,580.2,16.4,-3,D,800.4,2,49.004,2,2.12,182,215.2,-118.48494325,33.44390352,0,0,1,N,1.329638,65,65,11,102,102,207.3058,0,9999.99,4.27,4.397,2,9,25.2,0,25.2000007629395,33.84,1533.57132,07/13/16,16:26:48,23.04,51.45,33.84,-0.058,8.43,-83.8,1.6,-1.7,437,130.3,9.19,12.2,
130,33.4442555901894,-118.484644216051,16:29:48.80,7/13/2016,7,2.134,207.69,12.0453350093692,1.69,201.5,211.64,0.43,10.2,30.2,.00,4.13,4.13,96,48,580.2,16.4,-2.9,D,813.2,2,47.984,2,2.11,181,215.33,-118.48494325,33.44390352,0,0,1,N,1.194721,60,60,11,108,108,208.2486,0,9999.99,4.13,4.259244,2,9,25.2,0,25.2000007629395,33.84,1533.57134,07/13/16,16:26:49,23.04,51.45,33.84,-0.134,8.42,-83.4,0.8,-4.9,-959,130.3,9.19,12.3,
131,33.4442460097358,-118.484650511482,16:29:49.80,7/13/2016,7,2.092,207.42,12.0453350093692,1.69,205.2,215.53,0.6,11.1,30.3,.01,4.09,4.09,96,48,580.2,16.4,-2.9,D,813.2,2,46.777,2,2.1,181,215.5,-118.48494325,33.44390352,0,0,1,N,1.021243,61,61,11,103,103,209.4676,0,9999.99,4.09,4.217534,2,9,25.2,0,25.2000007629395,33.85,1533.58218,07/13/16,16:26:50,23.04,51.46,33.85,-0.060,8.43,-83.6,0.8,-0.2,-2839,130.3,9.19,12.3,
132,33.4442383299769,-118.484655955362,16:29:50.80,7/13/2016,7,2.136,208.82,12.0453350093692,1.32,206.3,216.69,-0.43,7.7,30.3,.00,4.13,4.14,96,48,580.2,16.4,-2.9,D,813.2,2,45.789,2,2.07,181,215.6,-118.48494325,33.44390352,0,0,1,N,0.914664,53,53,11,104,104,210.2199,0,9999.99,4.13,4.257,2,9,25.2,0,25.2000007629395,33.85,1533.58234,07/13/16,16:26:51,23.04,51.46,33.85,-0.147,8.43,-83.5,0.6,-3.8,-1102,130.2,9.18,12.3,
133,33.4442302892967,-118.484662440371,16:29:51.80,7/13/2016,7,1.91,210.48,12.0453350093692,1.32,207.8,218.27,0.24,7.14,30.2,.00,4.12,4.12,96,45,580.1,16.4,-2.7,D,864.2,2,44.711,2,2.05,181,215.64,-118.48494325,33.44390352,0,0,1,N,0.8577792,58,58,11,96,96,210.6224,0,5.26,4.12,9.507,2,9,25.2,0,25.2000007629395,33.83,1533.5605,07/13/16,16:26:52,23.04,51.44,33.83,-0.028,8.43,-83.5,1.1,-4.1,-2825,130.2,9.18,12.4,
134,33.4442245417388,-118.484670391309,16:29:52.80,7/13/2016,7,1.859,220.69,12.0453350093692,1.32,204.7,215.01,-0.29,11.6,30.2,.00,4.05,4.05,96,45,580.1,16.4,-2.7,D,864.2,2,43.763,2,2.01,181,215.35,-118.48494325,33.44390352,0,0,1,N,1.073316,55,55,11,103,103,209.1009,0,40.76,4.06,44.947,2,9,25.2,0,25.2000007629395,33.83,1533.56059,07/13/16,16:26:53,23.03,51.43,33.83,-0.079,8.42,-83.2,0.3,-4.5,-2027,130.2,9.19,12.3,
135,33.4442185666239,-118.484678000784,16:29:53.80,7/13/2016,7,1.953,221.42,12.0453350093692,1.32,208.5,219.01,0.26,7.45,30.2,.00,3.96,3.96,96,45,580.1,16.4,-2.7,D,864.2,2,42.813,2,2.04,181,215.09,-118.48494325,33.44390352,0,0,1,N,1.229196,59,59,11,83,83,208.0071,0,42.72,3.96,46.807,2,9,25.1,0,25.1000003814697,33.82,1533.31033,07/13/16,16:26:54,23.01,51.42,33.82,-0.068,8.42,-83.2,0.2,-7.7,-2298,130.2,9.19,12.5,
136,33.4442113158194,-118.484684777193,16:29:54.80,7/13/2016,7,2.01,222.36,12.0453350093692,1.32,209.4,219.96,-0.14,10.3,30.2,.00,3.94,3.94,96,45,580.1,16.4,-2.7,D,864.2,2,41.791,2,2.03,181,215.02,-118.48494325,33.44390352,0,0,1,N,1.251256,54,54,11,80,80,207.8529,0,9999.99,3.94,4.067,2,9,25.1,0,25.1000003814697,33.82,1533.31034,07/13/16,16:26:55,23.00,51.42,33.82,-0.066,8.42,-83.4,1.3,-3.0,638,130.2,9.19,12.3,
137,33.4442050428887,-118.484691775417,16:29:55.80,7/13/2016,7,1.969,223.13,12.0453350093692,1.32,212.1,222.8,0.12,5.54,30.2,.00,3.85,3.85,96,46,580.1,16.4,-2.8,D,849.7,2,40.848,2,2.02,181,214.83,-118.48494325,33.44390352,0,0,1,N,1.344931,57,57,11,67,67,207.1991,0,48.41,3.85,52.38066,2,9,25.1,0,25.1000003814697,33.76,1533.24556,07/13/16,16:26:56,22.97,51.34,33.76,-0.070,8.43,-83.5,0.8,-6.0,-3081,130.1,9.19,12.3,
138,33.4441979360594,-118.484699525935,16:29:56.80,7/13/2016,7,2.02,224.25,12.0453350093692,1.32,210.7,221.33,-0.5,6.77,30.2,.00,3.93,3.93,96,46,580.1,16.4,-2.8,D,849.7,2,39.789,2,2.02,181,214.64,-118.48494325,33.44390352,0,0,1,N,1.448238,54,54,11,64,64,206.4812,0,9999.99,3.93,4.057,2,9,25.1,0,25.1000003814697,33.82,1533.3103,07/13/16,16:26:57,22.93,51.41,33.82,-0.078,8.42,-82.9,0.2,-0.4,-800,130.1,9.20,12.4,
139,33.4441905089343,-118.484707755597,16:29:57.80,7/13/2016,7,2.065,225.24,12.0453350093692,1.32,206.9,217.32,0.7,10.7,30.2,.00,3.77,3.78,96,46,580.1,16.4,-2.8,D,849.7,2,38.676,2,2.05,181,214.4,-118.48494325,33.44390352,0,0,1,N,1.575221,63,63,11,77,77,205.603,0,9999.99,3.78,3.907,2,9,25.1,0,25.1000003814697,33.83,1533.32124,07/13/16,16:26:58,22.91,51.42,33.83,-0.044,8.42,-83.4,1.4,-4.6,-2087,130.0,9.19,12.3,
140,33.4441838887472,-118.484715122646,16:29:58.80,7/13/2016,7,1.955,221.82,12.0453350093692,1.32,210.8,221.43,-0.71,10,30.2,.00,3.49,3.49,96,48,580.0,16.4,-2.9,D,819.2,2,37.682,2,2.01,181,214.17,-118.48494325,33.44390352,0,0,1,N,1.67593,54,54,11,62,62,204.9104,0,48.21,3.49,51.827,2,9,25.1,0,25.1000003814697,33.83,1533.32125,07/13/16,16:26:59,22.89,51.43,33.83,-0.100,8.43,-83.4,0.8,-1.2,175,130.0,9.19,12.3,
141,33.4441762361134,-118.484722986839,16:29:59.80,7/13/2016,7,2.007,221.34,12.0453350093692,1.32,207.8,218.27,0.16,7.83,30.2,.00,3.62,3.62,96,48,580.0,16.4,-2.9,D,819.2,2,36.569,2,2.05,181,213.98,-118.48494325,33.44390352,0,0,1,N,1.756694,58,58,11,71,71,204.3573,0,4.92,3.62,8.667,2,9,25.1,0,25.1000003814697,33.82,1533.31032,07/13/16,16:27:00,22.89,51.42,33.82,-0.039,8.42,-83.1,0.2,-4.9,-3569,130.0,9.19,12.2,
142,33.4441693355194,-118.484730669036,16:30:00.80,7/13/2016,7,1.995,222.63,12.0453350093692,1.32,208.4,218.9,0.03,10.3,30.2,.00,3.71,3.71,96,48,580.0,16.4,-2.9,D,819.2,2,35.534,2,2.07,181,213.72,-118.48494325,33.44390352,0,0,1,N,1.867511,57,57,11,66,66,203.6025,0,39.15,3.71,42.98793,2,9,25.1,0,25.1000003814697,33.83,1533.32103,07/13/16,16:27:01,22.88,51.42,33.83,-0.059,8.42,-83.3,0.5,-1.0,-2140,129.9,9.19,12.4,
143,33.4441619478822,-118.484737844777,16:30:01.80,7/13/2016,7,2.15,222.23,12.0453350093692,1.32,207.7,218.17,0.35,6.28,30.2,.00,3.76,3.76,96,48,580.0,16.4,-2.9,D,819.2,2,34.481,2,2.08,181,213.55,-118.48494325,33.44390352,0,0,1,N,1.912416,57,57,11,72,72,203.2979,0,49.47,3.75,53.347,2,9,25.1,0,25.1000003814697,33.83,1533.32103,07/13/16,16:27:02,22.87,51.42,33.83,-0.087,8.42,-83.3,0.6,-3.2,-1094,129.8,9.18,12.3,
